index,blk_no,street,max_floor_lvl,year_completed,residential,commercial,market_hawker,miscellaneous,multistorey_carpark,precinct_pavilion,bldg_contract_town,total_dwelling_units,1room_sold,2room_sold,3room_sold,4room_sold,5room_sold,exec_sold,multigen_sold,studio_apartment_sold,1room_rental,2room_rental,3room_rental,other_room_rental,lat,lng,building,addr,postal,SUBZONE_NO,SUBZONE_N,SUBZONE_C,PLN_AREA_N,PLN_AREA_C,REGION_N,REGION_C
0,1,BEACH RD,16,1970,Y,Y,N,N,N,N,KWN,142,0,1,138,1,2,0,0,0,0,0,0,0,1.295097408,103.8540683,RAFFLES HOTEL,1 BEACH ROAD RAFFLES HOTEL SINGAPORE 189673,189673,2,CITY HALL,DTSZ02,DOWNTOWN CORE,DT,CENTRAL REGION,CR
1,1,BEDOK STH AVE 1,14,1975,Y,N,N,Y,N,N,BD,206,0,0,204,0,2,0,0,0,0,0,0,0,1.320852087,103.9337211,NIL,1 BEDOK SOUTH AVENUE 1 SINGAPORE 460001,460001,6,BEDOK SOUTH,BDSZ06,BEDOK,BD,EAST REGION,ER
2,1,CANTONMENT RD,2,2010,N,Y,N,N,N,N,CT,0,0,0,0,0,0,0,0,0,0,0,0,0,1.275488086,103.841419,PINNACLE @ DUXTON,1 CANTONMENT ROAD PINNACLE @ DUXTON SINGAPORE 080001,80001,3,CHINATOWN,OTSZ03,OUTRAM,OT,CENTRAL REGION,CR
3,1,CHAI CHEE RD,15,1982,Y,N,N,N,N,N,BD,102,0,0,0,10,92,0,0,0,0,0,0,0,1.327968792,103.922716,PING YI GARDENS,1 CHAI CHEE ROAD PING YI GARDENS SINGAPORE 461001,461001,3,KEMBANGAN,BDSZ03,BEDOK,BD,EAST REGION,ER
4,1,CHANGI VILLAGE RD,4,1975,Y,Y,N,N,N,N,PRC,55,0,0,54,0,1,0,0,0,0,0,0,0,1.388610038,103.9880935,OCBC CHANGI VILLAGE ROAD - 7 ELEVEN,1 CHANGI VILLAGE ROAD OCBC CHANGI VILLAGE ROAD - 7 ELEVEN SINGAPORE 500001,500001,1,CHANGI POINT,CHSZ01,CHANGI,CH,EAST REGION,ER
5,1,DELTA AVE,25,1982,Y,N,N,N,N,N,BM,96,0,0,0,0,96,0,0,0,0,0,0,0,1.292075251,103.8285841,NIL,1 DELTA AVENUE SINGAPORE 160001,160001,9,BUKIT HO SWEE,BMSZ09,BUKIT MERAH,BM,CENTRAL REGION,CR
6,1,DOVER RD,12,1975,Y,N,N,Y,N,N,QT,125,0,0,118,0,7,0,0,0,0,0,0,0,1.302529947,103.7832717,DOVER COMMUNITY CENTRE,1 DOVER ROAD DOVER COMMUNITY CENTRE SINGAPORE 130001,130001,10,DOVER,QTSZ10,QUEENSTOWN,QT,CENTRAL REGION,CR
7,1,EUNOS CRES,14,1977,Y,N,N,Y,N,N,GL,247,0,0,0,0,0,0,0,0,0,247,0,0,1.320657645,103.9024634,NIL,1 EUNOS CRESCENT SINGAPORE 400001,400001,5,GEYLANG EAST,GLSZ05,GEYLANG,GL,CENTRAL REGION,CR
8,1,EVERTON PK,12,1980,Y,Y,N,N,N,N,BM,95,0,0,62,0,33,0,0,0,0,0,0,0,1.275498954,103.8413985,DBS EVERTON PARK,1 CANTONMENT ROAD DBS EVERTON PARK SINGAPORE 080001,80001,3,CHINATOWN,OTSZ03,OUTRAM,OT,CENTRAL REGION,CR
9,1,GEYLANG SERAI,2,2009,N,Y,N,N,N,N,GL,0,0,0,0,0,0,0,0,0,0,0,0,0,1.316494157,103.8967884,WISMA GEYLANG SERAI,1 ENGKU AMAN TURN WISMA GEYLANG SERAI SINGAPORE 408528,408528,5,GEYLANG EAST,GLSZ05,GEYLANG,GL,CENTRAL REGION,CR
10,1,GHIM MOH RD,15,1975,Y,N,N,Y,N,N,QT,220,0,0,216,0,4,0,0,0,0,0,0,0,1.312879757,103.786855,GHIM MOH GREEN,1 GHIM MOH ROAD GHIM MOH GREEN SINGAPORE 270001,270001,1,GHIM MOH,QTSZ01,QUEENSTOWN,QT,CENTRAL REGION,CR
11,1,HAIG RD,15,1976,Y,N,N,Y,N,N,GL,219,0,0,214,0,5,0,0,0,0,0,0,0,1.311290918,103.8977034,MY FIRST SKOOL,1 HAIG ROAD MY FIRST SKOOL SINGAPORE 430001,430001,5,GEYLANG EAST,GLSZ05,GEYLANG,GL,CENTRAL REGION,CR
12,1,HOLLAND CL,13,1973,Y,N,N,Y,N,N,QT,319,0,0,0,0,0,0,0,0,319,0,0,0,1.309219378,103.7967324,NIL,1 HOLLAND CLOSE SINGAPORE 271001,271001,2,HOLLAND DRIVE,QTSZ02,QUEENSTOWN,QT,CENTRAL REGION,CR
13,1,HOUGANG AVE 3,14,1974,Y,N,N,Y,N,N,HG,204,0,0,200,0,4,0,0,0,0,0,0,0,1.364130973,103.8930013,NIL,1 HOUGANG AVENUE 3 SINGAPORE 530001,530001,2,KANGKAR,HGSZ02,HOUGANG,HG,NORTH-EAST REGION,NER
14,1,JLN KUKOH,17,1969,Y,N,Y,Y,N,N,CT,84,0,0,0,0,0,0,0,0,0,56,14,14,1.288231015,103.8399342,HAWKER CENTRE (BLK 1 JALAN KUKOH),1 JALAN KUKOH HAWKER CENTRE (BLK 1 JALAN KUKOH) SINGAPORE 161001,161001,1,PEARL'S HILL,OTSZ01,OUTRAM,OT,CENTRAL REGION,CR
15,1,JLN BT MERAH,14,1974,Y,Y,N,N,N,N,BM,244,0,0,243,0,0,0,0,0,0,0,1,0,1.286441576,103.808287,OCBC JALAN BUKIT MERAH - FAIRPRICE,1 JALAN BUKIT MERAH OCBC JALAN BUKIT MERAH - FAIRPRICE SINGAPORE 150001,150001,7,ALEXANDRA HILL,BMSZ07,BUKIT MERAH,BM,CENTRAL REGION,CR
16,1,JOO CHIAT RD,5,1984,N,Y,N,N,N,N,GL,0,0,0,0,0,0,0,0,0,0,0,0,0,1.315859059,103.8983762,UOB JOO CHIAT COMPLEX,1 JOO CHIAT ROAD UOB JOO CHIAT COMPLEX SINGAPORE 420001,420001,5,GEYLANG EAST,GLSZ05,GEYLANG,GL,CENTRAL REGION,CR
17,1,KG KAYU RD,10,1963,Y,N,N,N,N,N,KWN,107,0,0,106,1,0,0,0,0,0,0,0,0,1.303557697,103.8837964,DI TANJONG RHU,1 KAMPONG KAYU ROAD DI TANJONG RHU SINGAPORE 431001,431001,5,TANJONG RHU,KLSZ05,KALLANG,KL,CENTRAL REGION,CR
18,1,LOR LEW LIAN,14,1977,Y,N,N,Y,N,N,SGN,179,0,0,174,0,3,0,0,0,0,0,2,0,1.350867126,103.8753439,NIL,1 LORONG LEW LIAN SINGAPORE 531001,531001,7,UPPER PAYA LEBAR,SGSZ07,SERANGOON,SG,NORTH-EAST REGION,NER
19,1,LOR 7 TOA PAYOH,11,1968,Y,N,N,N,N,N,TP,196,0,0,194,0,2,0,0,0,0,0,0,0,1.339430335,103.8534428,KIM KEAT COURT,1 LORONG 7 TOA PAYOH KIM KEAT COURT SINGAPORE 310001,310001,5,LORONG 8 TOA PAYOH,TPSZ05,TOA PAYOH,TP,CENTRAL REGION,CR
20,1,MARINE TER,25,1974,Y,Y,N,N,N,N,MP,96,0,0,0,0,96,0,0,0,0,0,0,0,1.304829022,103.918615,MARINE TERRACE WALK,1 MARINE TERRACE MARINE TERRACE WALK SINGAPORE 440001,440001,3,MARINE PARADE,MPSZ03,MARINE PARADE,MP,CENTRAL REGION,CR
21,1,MARSILING DR,11,1973,Y,N,N,Y,N,N,WL,159,0,0,158,0,1,0,0,0,0,0,0,0,1.440671099,103.7757399,MARSILING SPRING,1 MARSILING DRIVE MARSILING SPRING SINGAPORE 730001,730001,6,WOODLANDS WEST,WDSZ06,WOODLANDS,WD,NORTH REGION,NR
22,1,MAUDE RD,14,1970,Y,Y,N,Y,N,N,KWN,176,0,0,0,0,0,0,0,0,0,176,0,0,1.307544023,103.8590197,D'JOY CHILDREN'S CENTRE,1 MAUDE ROAD D'JOY CHILDREN'S CENTRE SINGAPORE 200001,200001,6,LAVENDER,KLSZ06,KALLANG,KL,CENTRAL REGION,CR
23,1,PINE CL,19,1998,Y,N,N,N,N,N,GL,156,0,0,0,100,56,0,0,0,0,0,0,0,1.307870562,103.8831922,NIL,1 PINE CLOSE SINGAPORE 390001,390001,4,ALJUNIED,GLSZ04,GEYLANG,GL,CENTRAL REGION,CR
24,1,QUEEN'S RD,23,1974,Y,N,N,N,N,N,BT,88,0,0,0,0,88,0,0,0,0,0,0,0,1.317266295,103.8067829,FARRER GARDENS,1 QUEEN'S ROAD FARRER GARDENS SINGAPORE 260001,260001,8,FARRER COURT,BTSZ08,BUKIT TIMAH,BT,CENTRAL REGION,CR
25,1,ST. GEORGE'S RD,12,1975,Y,N,N,Y,N,N,KWN,154,0,0,0,154,0,0,0,0,0,0,0,0,1.322639331,103.8617064,RESIDENCE @ ST GEORGE,1 SAINT GEORGE'S LANE RESIDENCE @ ST GEORGE SINGAPORE 328047,328047,1,BENDEMEER,KLSZ01,KALLANG,KL,CENTRAL REGION,CR
26,1,TAMPINES WALK,7,2016,N,N,N,Y,N,N,TAP,0,0,0,0,0,0,0,0,0,0,0,0,0,1.353300307,103.9405254,HDB TAMPINES BRANCH,1 TAMPINES WALK HDB TAMPINES BRANCH SINGAPORE 528523,528523,3,TAMPINES WEST,TMSZ03,TAMPINES,TM,EAST REGION,ER
27,1,TECK WHYE AVE,13,1983,Y,N,N,N,N,N,CCK,118,0,0,68,48,0,2,0,0,0,0,0,0,1.382538829,103.7517109,TECK WHYE HEIGHTS I,1 TECK WHYE AVENUE TECK WHYE HEIGHTS I SINGAPORE 680001,680001,1,TECK WHYE,CKSZ01,CHOA CHU KANG,CK,WEST REGION,WR
28,1,TELOK BLANGAH CRES,16,1973,Y,Y,N,N,N,N,BM,148,0,0,146,0,2,0,0,0,0,0,0,0,1.279456601,103.8178976,MOUNT FABER GREEN,1 TELOK BLANGAH CRESCENT MOUNT FABER GREEN SINGAPORE 090001,90001,14,TELOK BLANGAH WAY,BMSZ14,BUKIT MERAH,BM,CENTRAL REGION,CR
29,1,TG PAGAR PLAZA,24,1976,Y,Y,N,Y,N,N,CT,163,0,0,158,0,5,0,0,0,0,0,0,0,1.27624052,103.8430061,OCBC TANJONG PAGAR PLAZA - 7 ELEVEN,1 TANJONG PAGAR PLAZA OCBC TANJONG PAGAR PLAZA - 7 ELEVEN SINGAPORE 082001,82001,3,CHINATOWN,OTSZ03,OUTRAM,OT,CENTRAL REGION,CR
30,1,THOMSON RD,4,1977,Y,Y,N,N,N,N,KWN,8,0,0,0,0,0,0,0,0,0,0,8,0,1.330510312,103.8375437,THOMSON POLICE COMPLEX,1 MOUNT PLEASANT ROAD THOMSON POLICE COMPLEX SINGAPORE 298333,298333,5,MOUNT PLEASANT,NVSZ05,NOVENA,NV,CENTRAL REGION,CR
31,1,TOH YI DR,13,1987,Y,N,N,Y,N,N,BT,132,0,0,0,72,60,0,0,0,0,0,0,0,1.339571753,103.7746782,TOH YI GARDENS,1 TOH YI DRIVE TOH YI GARDENS SINGAPORE 591501,591501,1,ANAK BUKIT,BTSZ01,BUKIT TIMAH,BT,CENTRAL REGION,CR
32,1,UPP ALJUNIED LANE,1,2003,N,Y,Y,N,N,N,TP,0,0,0,0,0,0,0,0,0,0,0,0,0,1.334955931,103.881581,DBS UPPER ALJUNIED LANE 1,1 UPPER ALJUNIED LINK DBS UPPER ALJUNIED LANE 1 SINGAPORE 367901,367901,12,JOO SENG,TPSZ12,TOA PAYOH,TP,CENTRAL REGION,CR
33,1,WOODLANDS IND PK E3,2,1994,N,N,N,Y,N,N,WL,0,0,0,0,0,0,0,0,0,0,0,0,0,1.454813455,103.8000692,HDB CENTRE OF BUILDING RESEARCH,1 WOODLANDS INDUSTRIAL PARK E3 HDB CENTRE OF BUILDING RESEARCH SINGAPORE 757780,757780,8,SENOKO WEST,WDSZ08,WOODLANDS,WD,NORTH REGION,NR
34,1A,C'WEALTH DR,1,2010,N,N,Y,N,N,N,QT,0,0,0,0,0,0,0,0,0,0,0,0,0,1.299730716,103.7978355,TANGLIN HALT FOOD CENTRE,1A COMMONWEALTH DRIVE TANGLIN HALT FOOD CENTRE SINGAPORE 141001,141001,4,TANGLIN HALT,QTSZ04,QUEENSTOWN,QT,CENTRAL REGION,CR
35,1A,CANTONMENT RD,50,2009,Y,N,N,Y,N,N,CT,264,0,0,0,176,88,0,0,0,0,0,0,0,1.27784271,103.8409659,THE PINNACLE@DUXTON,1A CANTONMENT ROAD THE PINNACLE@DUXTON SINGAPORE 085101,85101,3,CHINATOWN,OTSZ03,OUTRAM,OT,CENTRAL REGION,CR
36,1A,EUNOS CRES,2,1981,Y,Y,N,N,N,N,GL,2,0,0,0,0,0,0,0,0,0,0,2,0,1.321288182,103.9027263,OCBC EUNOS CRESCENT - 7 ELEVEN,1A EUNOS CRESCENT OCBC EUNOS CRESCENT - 7 ELEVEN SINGAPORE 401001,401001,5,GEYLANG EAST,GLSZ05,GEYLANG,GL,CENTRAL REGION,CR
37,1A,EVERTON PK,1,2000,N,N,N,N,N,Y,BM,0,0,0,0,0,0,0,0,0,0,0,0,0,1.277190575,103.8402577,NIL,1A EVERTON PARK SINGAPORE 083001,83001,16,EVERTON PARK,BMSZ16,BUKIT MERAH,BM,CENTRAL REGION,CR
38,1A,TELOK PAKU RD,5,2015,N,N,N,N,Y,N,PRC,0,0,0,0,0,0,0,0,0,0,0,0,0,1.387966586,103.9882989,MULTI STOREY CAR PARK,1A TELOK PAKU ROAD MULTI STOREY CAR PARK SINGAPORE 498730,498730,1,CHANGI POINT,CHSZ01,CHANGI,CH,EAST REGION,ER
39,1A,TELOK BLANGAH CRES,1,2005,N,N,N,N,N,Y,BM,0,0,0,0,0,0,0,0,0,0,0,0,0,1.279606818,103.8177905,MOUNT FABER GREEN,1A TELOK BLANGAH CRESCENT MOUNT FABER GREEN SINGAPORE 091001,91001,14,TELOK BLANGAH WAY,BMSZ14,BUKIT MERAH,BM,CENTRAL REGION,CR
40,1A,THOMSON RD,1,1980,N,Y,N,N,N,N,KWN,0,0,0,0,0,0,0,0,0,0,0,0,0,1.325741734,103.8430344,BALESTIER HILL SHOPPING CENTRE,1A THOMSON ROAD BALESTIER HILL SHOPPING CENTRE SINGAPORE 301001,301001,1,BALESTIER,NVSZ01,NOVENA,NV,CENTRAL REGION,CR
41,1A,TOH YI DR,4,1988,N,N,N,N,Y,N,BT,0,0,0,0,0,0,0,0,0,0,0,0,0,1.33904481,103.7743004,TOH YI DRIVE MULTI STOREY CARPARK,1A TOH YI DRIVE TOH YI DRIVE MULTI STOREY CARPARK SINGAPORE 591601,591601,1,ANAK BUKIT,BTSZ01,BUKIT TIMAH,BT,CENTRAL REGION,CR
42,1B,CANTONMENT RD,50,2009,Y,N,N,N,N,N,CT,264,0,0,0,176,88,0,0,0,0,0,0,0,1.277799407,103.8414034,THE PINNACLE@DUXTON,1B CANTONMENT ROAD THE PINNACLE@DUXTON SINGAPORE 085201,85201,3,CHINATOWN,OTSZ03,OUTRAM,OT,CENTRAL REGION,CR
43,1C,CANTONMENT RD,50,2009,Y,N,N,N,N,N,CT,264,0,0,0,176,88,0,0,0,0,0,0,0,1.277449094,103.8416667,THE PINNACLE@DUXTON,1C CANTONMENT ROAD THE PINNACLE@DUXTON SINGAPORE 085301,85301,3,CHINATOWN,OTSZ03,OUTRAM,OT,CENTRAL REGION,CR
44,1D,CANTONMENT RD,50,2009,Y,N,N,Y,N,N,CT,264,0,0,0,176,88,0,0,0,0,0,0,0,1.276920243,103.8414858,THE KIDZ ZONE PTE LTD,1D CANTONMENT ROAD THE KIDZ ZONE PTE LTD SINGAPORE 085401,85401,3,CHINATOWN,OTSZ03,OUTRAM,OT,CENTRAL REGION,CR
45,1E,CANTONMENT RD,50,2009,Y,N,N,Y,N,N,CT,264,0,0,0,176,88,0,0,0,0,0,0,0,1.276621684,103.8411561,PCF SPARKLETOTS PRESCHOOL @ TANJONG PAGAR-TIONG BAHRU BLK 1E (KN),1E CANTONMENT ROAD PCF SPARKLETOTS PRESCHOOL @ TANJONG PAGAR-TIONG BAHRU BLK 1E (KN) SINGAPORE 085501,85501,3,CHINATOWN,OTSZ03,OUTRAM,OT,CENTRAL REGION,CR
46,1F,CANTONMENT RD,50,2009,Y,N,N,Y,N,N,CT,264,0,0,0,176,88,0,0,0,0,0,0,0,1.275986995,103.8411918,THE PINNACLE@DUXTON,1F CANTONMENT ROAD THE PINNACLE@DUXTON SINGAPORE 085601,85601,3,CHINATOWN,OTSZ03,OUTRAM,OT,CENTRAL REGION,CR
47,1G,CANTONMENT RD,50,2009,Y,N,N,Y,N,N,CT,264,0,0,0,176,88,0,0,0,0,0,0,0,1.275532291,103.8412746,THE PINNACLE@DUXTON,1G CANTONMENT ROAD THE PINNACLE@DUXTON SINGAPORE 085701,85701,3,CHINATOWN,OTSZ03,OUTRAM,OT,CENTRAL REGION,CR
48,10,BENDEMEER RD,7,2016,N,N,N,N,Y,N,KWN,0,0,0,0,0,0,0,0,0,0,0,0,0,1.315509938,103.860953,BENDEMEER LIGHT,10 BENDEMEER ROAD BENDEMEER LIGHT SINGAPORE 330010,330010,1,BENDEMEER,KLSZ01,KALLANG,KL,CENTRAL REGION,CR
49,10,CANTONMENT CL,5,2000,N,N,N,Y,Y,N,BM,0,0,0,0,0,0,0,0,0,0,0,0,0,1.274569743,103.8392121,MULTI STOREY CAR PARK,10 CANTONMENT CLOSE MULTI STOREY CAR PARK SINGAPORE 080010,80010,16,EVERTON PARK,BMSZ16,BUKIT MERAH,BM,CENTRAL REGION,CR
50,10,CHAI CHEE RD,15,1999,Y,Y,N,N,N,N,BD,84,0,0,0,56,28,0,0,0,0,0,0,0,1.327275724,103.9248036,NIL,10 CHAI CHEE ROAD SINGAPORE 467010,467010,3,KEMBANGAN,BDSZ03,BEDOK,BD,EAST REGION,ER
51,10,DAKOTA CRES,7,1958,Y,N,N,Y,N,N,GL,53,0,0,0,0,0,0,0,0,0,0,53,0,1.306341146,103.8844582,NIL,10 DAKOTA CRESCENT SINGAPORE 390010,390010,4,ALJUNIED,GLSZ04,GEYLANG,GL,CENTRAL REGION,CR
52,10,EUNOS CRES,16,1977,Y,N,N,Y,N,N,GL,180,0,0,0,180,0,0,0,0,0,0,0,0,1.322286559,103.9027205,NIL,10 EUNOS CRESCENT SINGAPORE 400010,400010,5,GEYLANG EAST,GLSZ05,GEYLANG,GL,CENTRAL REGION,CR
53,10,GLOUCESTER RD,14,1976,Y,N,N,Y,N,N,KWN,207,0,0,180,26,1,0,0,0,0,0,0,0,1.313916596,103.8522098,PCF SPARKLETOTS PRESCHOOL @ MOULMEIN-CAIRNHILL 10 (DS),10 GLOUCESTER ROAD PCF SPARKLETOTS PRESCHOOL @ MOULMEIN-CAIRNHILL 10 (DS) SINGAPORE 210010,210010,7,KAMPONG JAVA,KLSZ07,KALLANG,KL,CENTRAL REGION,CR
54,10,HAIG RD,13,1976,Y,Y,N,N,N,N,GL,133,0,0,133,0,0,0,0,0,0,0,0,0,1.314846411,103.895865,DBS HAIG ROAD,10 HAIG ROAD DBS HAIG ROAD SINGAPORE 430010,430010,5,GEYLANG EAST,GLSZ05,GEYLANG,GL,CENTRAL REGION,CR
55,10,HOLLAND AVE,14,1973,Y,N,N,N,N,N,QT,101,0,0,0,101,0,0,0,0,0,0,0,0,1.308149971,103.7942752,HOLLAND VISTA,10 HOLLAND AVENUE HOLLAND VISTA SINGAPORE 271010,271010,2,HOLLAND DRIVE,QTSZ02,QUEENSTOWN,QT,CENTRAL REGION,CR
56,10,JLN BT HO SWEE,10,1962,Y,N,N,N,N,N,BM,120,0,50,0,0,0,0,0,0,0,70,0,0,1.28745837,103.8326758,BUKIT HO SWEE VIEW,10 JALAN BUKIT HO SWEE BUKIT HO SWEE VIEW SINGAPORE 161010,161010,9,BUKIT HO SWEE,BMSZ09,BUKIT MERAH,BM,CENTRAL REGION,CR
57,10,JLN RUMAH TINGGI,4,1986,Y,N,N,N,N,N,BM,28,0,0,20,8,0,0,0,0,0,0,0,0,1.288200189,103.8083694,RUMAH TINGGI VIEW,10 JALAN RUMAH TINGGI RUMAH TINGGI VIEW SINGAPORE 150010,150010,7,ALEXANDRA HILL,BMSZ07,BUKIT MERAH,BM,CENTRAL REGION,CR
58,10,JLN BATU,12,1966,Y,N,N,Y,N,N,KWN,132,0,0,0,8,97,27,0,0,0,0,0,0,1.302044883,103.8828871,DI TANJONG RHU,10 JALAN BATU DI TANJONG RHU SINGAPORE 431010,431010,5,TANJONG RHU,KLSZ05,KALLANG,KL,CENTRAL REGION,CR
59,10,JLN KUKOH,12,1970,Y,Y,N,Y,N,N,CT,92,0,72,16,4,0,0,0,0,0,0,0,0,1.286973834,103.8390758,CHIN SWEE VIEW,10 JALAN KUKOH CHIN SWEE VIEW SINGAPORE 162010,162010,1,PEARL'S HILL,OTSZ01,OUTRAM,OT,CENTRAL REGION,CR
60,10,JOO SENG RD,20,1982,Y,N,N,N,N,N,TP,76,0,0,0,0,76,0,0,0,0,0,0,0,1.334618334,103.880165,NIL,10 JOO SENG ROAD SINGAPORE 360010,360010,12,JOO SENG,TPSZ12,TOA PAYOH,TP,CENTRAL REGION,CR
61,10,LOR 7 TOA PAYOH,25,1997,Y,N,N,N,N,N,TP,96,0,0,0,68,28,0,0,0,0,0,0,0,1.337165276,103.8572288,TOA PAYOH COURT,10 LORONG 7 TOA PAYOH TOA PAYOH COURT SINGAPORE 310010,310010,6,PEI CHUN,TPSZ06,TOA PAYOH,TP,CENTRAL REGION,CR
62,10,MARSILING DR,22,1975,Y,Y,N,N,N,N,WL,84,0,0,0,0,84,0,0,0,0,0,0,0,1.440805674,103.7773186,MARSILING GARDENS,10 MARSILING DRIVE MARSILING GARDENS SINGAPORE 730010,730010,6,WOODLANDS WEST,WDSZ06,WOODLANDS,WD,NORTH REGION,NR
63,10,NTH BRIDGE RD,16,1973,Y,Y,N,N,N,N,KWN,224,0,0,0,0,0,0,0,0,224,0,0,0,1.30555234,103.8635628,NIL,10 NORTH BRIDGE ROAD SINGAPORE 190010,190010,9,CRAWFORD,KLSZ09,KALLANG,KL,CENTRAL REGION,CR
64,10,PINE CL,13,1981,Y,N,N,N,N,N,GL,120,0,0,72,48,0,0,0,0,0,0,0,0,1.309152394,103.8822425,NIL,10 PINE CLOSE SINGAPORE 391010,391010,4,ALJUNIED,GLSZ04,GEYLANG,GL,CENTRAL REGION,CR
65,10,SELEGIE RD,10,1963,Y,Y,N,N,N,N,CT,48,0,0,48,0,0,0,0,0,0,0,0,0,1.303708794,103.8505372,SELEGIE HOUSE,10 SELEGIE ROAD SELEGIE HOUSE SINGAPORE 180010,180010,9,BENCOOLEN,RCSZ09,ROCHOR,RC,CENTRAL REGION,CR
66,10,ST. GEORGE'S RD,4,1984,Y,N,N,N,N,N,KWN,12,0,0,0,12,0,0,0,0,0,0,0,0,1.323746488,103.8634122,SAINT GEORGE'S EAST GARDENS,10 SAINT GEORGE'S ROAD SAINT GEORGE'S EAST GARDENS SINGAPORE 320010,320010,1,BENDEMEER,KLSZ01,KALLANG,KL,CENTRAL REGION,CR
67,10,TECK WHYE AVE,12,1977,Y,N,N,Y,N,N,CCK,153,0,0,130,22,0,1,0,0,0,0,0,0,1.380470546,103.7552111,PCF SPARKLETOTS PRESCHOOL @ CHUA CHU KANG BLK 10 (KN),10 TECK WHYE AVENUE PCF SPARKLETOTS PRESCHOOL @ CHUA CHU KANG BLK 10 (KN) SINGAPORE 680010,680010,1,TECK WHYE,CKSZ01,CHOA CHU KANG,CK,WEST REGION,WR
68,10,TELOK BLANGAH CRES,10,1974,Y,Y,N,N,N,N,BM,66,0,0,65,0,1,0,0,0,0,0,0,0,1.277731532,103.8197694,NIL,10 TELOK BLANGAH CRESCENT SINGAPORE 090010,90010,14,TELOK BLANGAH WAY,BMSZ14,BUKIT MERAH,BM,CENTRAL REGION,CR
69,10,TOH YI DR,7,1988,Y,N,N,N,N,N,BT,36,0,0,0,0,0,36,0,0,0,0,0,0,1.337539566,103.7731611,TOH YI GARDENS,10 TOH YI DRIVE TOH YI GARDENS SINGAPORE 590010,590010,1,ANAK BUKIT,BTSZ01,BUKIT TIMAH,BT,CENTRAL REGION,CR
70,10,WOODLANDS AVE 8,4,2000,N,N,N,Y,N,N,WL,0,0,0,0,0,0,0,0,0,0,0,0,0,1.454287141,103.8002621,HDB CENTRE OF BUILDING RESEARCH,10 WOODLANDS AVENUE 8 HDB CENTRE OF BUILDING RESEARCH SINGAPORE 738973,738973,8,SENOKO WEST,WDSZ08,WOODLANDS,WD,NORTH REGION,NR
71,10A,BEDOK STH AVE 2,5,1992,N,N,N,N,Y,N,BD,0,0,0,0,0,0,0,0,0,0,0,0,0,1.322585616,103.9368494,NIL,10A BEDOK SOUTH AVENUE 2 SINGAPORE 460010,460010,6,BEDOK SOUTH,BDSZ06,BEDOK,BD,EAST REGION,ER
72,10A,BENDEMEER RD,40,2016,Y,N,N,N,N,N,KWN,220,0,0,71,149,0,0,0,0,0,0,0,0,1.314991389,103.8605054,BENDEMEER LIGHT,10A BENDEMEER ROAD BENDEMEER LIGHT SINGAPORE 331010,331010,1,BENDEMEER,KLSZ01,KALLANG,KL,CENTRAL REGION,CR
73,10A,BOON TIONG RD,40,2014,Y,N,N,Y,N,N,BM,228,0,0,76,152,0,0,0,0,0,0,0,0,1.286358471,103.8296262,TIONG BAHRU VIEW,10A BOON TIONG ROAD TIONG BAHRU VIEW SINGAPORE 160010,160010,10,TIONG BAHRU,BMSZ10,BUKIT MERAH,BM,CENTRAL REGION,CR
74,10A,CHAI CHEE RD,1,1999,N,N,N,N,N,Y,BD,0,0,0,0,0,0,0,0,0,0,0,0,0,1.327103643,103.9249213,NIL,10A CHAI CHEE ROAD SINGAPORE 469010,469010,3,KEMBANGAN,BDSZ03,BEDOK,BD,EAST REGION,ER
75,10A,HOLLAND DR,6,1997,N,N,N,N,Y,N,QT,0,0,0,0,0,0,0,0,0,0,0,0,0,1.308404471,103.7936975,MULTI STOREY CAR PARK,10A HOLLAND DRIVE MULTI STOREY CAR PARK SINGAPORE 272010,272010,2,HOLLAND DRIVE,QTSZ02,QUEENSTOWN,QT,CENTRAL REGION,CR
76,10A,JLN KUKOH,1,1999,N,N,N,N,N,Y,CT,0,0,0,0,0,0,0,0,0,0,0,0,0,1.286837933,103.8386741,NIL,10A JALAN KUKOH SINGAPORE 163010,163010,1,PEARL'S HILL,OTSZ01,OUTRAM,OT,CENTRAL REGION,CR
77,10A,LOR 7 TOA PAYOH,5,1997,N,N,N,N,Y,N,TP,0,0,0,0,0,0,0,0,0,0,0,0,0,1.337171643,103.8577935,MULTI STOREY CAR PARK,10A LORONG 7 TOA PAYOH MULTI STOREY CAR PARK SINGAPORE 311010,311010,6,PEI CHUN,TPSZ06,TOA PAYOH,TP,CENTRAL REGION,CR
78,10B,BENDEMEER RD,40,2016,Y,N,N,N,N,N,KWN,184,0,0,70,114,0,0,0,0,0,0,0,0,1.315477153,103.8603129,BENDEMEER LIGHT,10B BENDEMEER ROAD BENDEMEER LIGHT SINGAPORE 332010,332010,1,BENDEMEER,KLSZ01,KALLANG,KL,CENTRAL REGION,CR
79,10B,BEDOK STH AVE 2,20,1994,Y,N,N,N,N,N,BD,56,0,0,0,0,0,56,0,0,0,0,0,0,1.322353866,103.9361833,NIL,10B BEDOK SOUTH AVENUE 2 SINGAPORE 461010,461010,6,BEDOK SOUTH,BDSZ06,BEDOK,BD,EAST REGION,ER
80,10B,BOON TIONG RD,30,2014,Y,N,N,Y,N,N,BM,160,0,12,28,84,0,0,0,36,0,0,0,0,1.286336847,103.8292048,TIONG BAHRU VIEW,10B BOON TIONG ROAD TIONG BAHRU VIEW SINGAPORE 164010,164010,10,TIONG BAHRU,BMSZ10,BUKIT MERAH,BM,CENTRAL REGION,CR
81,10B,LOR 7 TOA PAYOH,25,1997,Y,N,N,N,N,N,TP,96,0,0,0,68,28,0,0,0,0,0,0,0,1.337161364,103.8583536,TOA PAYOH COURT,10B LORONG 7 TOA PAYOH TOA PAYOH COURT SINGAPORE 312010,312010,6,PEI CHUN,TPSZ06,TOA PAYOH,TP,CENTRAL REGION,CR
82,10C,BENDEMEER RD,40,2016,Y,N,N,N,N,N,KWN,220,0,0,71,149,0,0,0,0,0,0,0,0,1.315842362,103.8606445,BENDEMEER LIGHT,10C BENDEMEER ROAD BENDEMEER LIGHT SINGAPORE 333010,333010,1,BENDEMEER,KLSZ01,KALLANG,KL,CENTRAL REGION,CR
83,10C,BEDOK STH AVE 2,2,1994,Y,N,N,Y,N,N,BD,2,0,0,0,0,0,2,0,0,0,0,0,0,1.322093899,103.9362221,HDB PUBLIC SHELTERS,10C BEDOK SOUTH AVENUE 2 HDB PUBLIC SHELTERS SINGAPORE 462010,462010,6,BEDOK SOUTH,BDSZ06,BEDOK,BD,EAST REGION,ER
84,10C,LOR 7 TOA PAYOH,1,1997,N,N,N,N,N,Y,TP,0,0,0,0,0,0,0,0,0,0,0,0,0,1.33691013,103.8580493,TOA PAYOH COURT,10C LORONG 7 TOA PAYOH TOA PAYOH COURT SINGAPORE 313010,313010,6,PEI CHUN,TPSZ06,TOA PAYOH,TP,CENTRAL REGION,CR
85,10D,BEDOK STH AVE 2,23,1994,Y,N,N,N,N,N,BD,84,0,0,0,0,0,84,0,0,0,0,0,0,1.321770859,103.9363266,NIL,10D BEDOK SOUTH AVENUE 2 SINGAPORE 463010,463010,6,BEDOK SOUTH,BDSZ06,BEDOK,BD,EAST REGION,ER
86,10E,BEDOK STH AVE 2,21,1992,Y,N,N,N,N,N,BD,81,0,0,0,0,0,81,0,0,0,0,0,0,1.321620093,103.937041,NIL,10E BEDOK SOUTH AVENUE 2 SINGAPORE 464010,464010,6,BEDOK SOUTH,BDSZ06,BEDOK,BD,EAST REGION,ER
87,10F,BEDOK STH AVE 2,24,1992,Y,N,N,N,N,N,BD,67,0,0,0,0,0,67,0,0,0,0,0,0,1.322217735,103.9370013,NIL,10F BEDOK SOUTH AVENUE 2 SINGAPORE 465010,465010,6,BEDOK SOUTH,BDSZ06,BEDOK,BD,EAST REGION,ER
88,100,ALJUNIED CRES,12,1977,Y,N,N,Y,N,N,GL,198,0,0,0,0,0,0,0,0,198,0,0,0,1.320966199,103.8841674,BETHEL TOTS CENTRE,100 ALJUNIED CRESCENT BETHEL TOTS CENTRE SINGAPORE 380100,380100,4,ALJUNIED,GLSZ04,GEYLANG,GL,CENTRAL REGION,CR
89,100,BEDOK NTH AVE 4,14,1978,Y,N,N,N,N,N,BD,206,0,0,178,26,1,1,0,0,0,0,0,0,1.334355934,103.9390327,PEARL GARDEN,100 BEDOK NORTH AVENUE 4 PEARL GARDEN SINGAPORE 460100,460100,4,BEDOK NORTH,BDSZ04,BEDOK,BD,EAST REGION,ER
90,100,C'WEALTH CRES,10,1964,Y,N,N,N,N,N,QT,75,0,9,61,5,0,0,0,0,0,0,0,0,1.307705276,103.8012725,CRESCENT VIEW,100 COMMONWEALTH CRESCENT CRESCENT VIEW SINGAPORE 140100,140100,3,COMMONWEALTH,QTSZ03,QUEENSTOWN,QT,CENTRAL REGION,CR
91,100,LOR 1 TOA PAYOH,16,1968,Y,N,N,N,N,N,TP,192,0,0,192,0,0,0,0,0,0,0,0,0,1.339564005,103.8485857,TOA PAYOH PALM SPRING,100 LORONG 1 TOA PAYOH TOA PAYOH PALM SPRING SINGAPORE 310100,310100,3,BRADDELL,TPSZ03,TOA PAYOH,TP,CENTRAL REGION,CR
92,100,WHAMPOA DR,25,1973,Y,N,N,N,N,N,KWN,96,0,0,0,96,0,0,0,0,0,0,0,0,1.320779477,103.8543487,WHAMPOA VIEW,100 WHAMPOA DRIVE WHAMPOA VIEW SINGAPORE 320100,320100,1,BALESTIER,NVSZ01,NOVENA,NV,CENTRAL REGION,CR
93,101,AH HOOD RD,25,1981,Y,N,N,N,N,N,KWN,96,0,0,0,0,96,0,0,0,0,0,0,0,1.32739679,103.844481,AH HOOD GARDENS,101 AH HOOD ROAD AH HOOD GARDENS SINGAPORE 320101,320101,1,BALESTIER,NVSZ01,NOVENA,NV,CENTRAL REGION,CR
94,101,ALJUNIED CRES,12,1977,Y,Y,N,N,N,N,GL,152,0,0,126,22,1,1,0,0,0,0,2,0,1.320922753,103.883352,NIL,101 ALJUNIED CRESCENT SINGAPORE 380101,380101,4,ALJUNIED,GLSZ04,GEYLANG,GL,CENTRAL REGION,CR
95,101,ANG MO KIO AVE 3,12,1977,Y,N,N,N,N,N,AMK,88,0,0,0,12,76,0,0,0,0,0,0,0,1.370261584,103.8394679,KEBUN BARU HEIGHTS,101 ANG MO KIO AVENUE 3 KEBUN BARU HEIGHTS SINGAPORE 560101,560101,6,KEBUN BAHRU,AMSZ06,ANG MO KIO,AM,NORTH-EAST REGION,NER
96,101,BEDOK RESERVOIR RD,12,1985,Y,N,N,N,N,N,BD,110,0,0,0,16,94,0,0,0,0,0,0,0,1.328449133,103.9099374,EUNOS VISTA,101 BEDOK RESERVOIR ROAD EUNOS VISTA SINGAPORE 470101,470101,1,KAKI BUKIT,BDSZ01,BEDOK,BD,EAST REGION,ER
97,101,BEDOK NTH AVE 4,13,1977,Y,N,N,Y,N,N,BD,168,0,35,0,0,0,0,0,0,0,133,0,0,1.334484667,103.9379247,PEARL GARDEN,101 BEDOK NORTH AVENUE 4 PEARL GARDEN SINGAPORE 460101,460101,4,BEDOK NORTH,BDSZ04,BEDOK,BD,EAST REGION,ER
98,101,BISHAN ST 12,25,1986,Y,N,N,N,N,N,BH,92,0,0,0,0,84,8,0,0,0,0,0,0,1.344859158,103.8484008,BISHAN VIEW,101 BISHAN STREET 12 BISHAN VIEW SINGAPORE 570101,570101,3,BISHAN EAST,BSSZ03,BISHAN,BS,CENTRAL REGION,CR
99,101,BIDADARI PK DR,2,2019,N,N,N,Y,Y,Y,TP,0,0,0,0,0,0,0,0,0,0,0,0,0,1.336236716,103.8712876,ALKAFF COURTVIEW,101 BIDADARI PARK DRIVE ALKAFF COURTVIEW SINGAPORE 340101,340101,11,SENNETT,TPSZ11,TOA PAYOH,TP,CENTRAL REGION,CR
100,101,BT PURMEI RD,11,1982,Y,N,N,N,N,N,BM,140,0,0,89,50,0,0,0,0,0,0,1,0,1.271462566,103.8256835,BUKIT PURMEI VILLE,101 BUKIT PURMEI ROAD BUKIT PURMEI VILLE SINGAPORE 090101,90101,15,TELOK BLANGAH RISE,BMSZ15,BUKIT MERAH,BM,CENTRAL REGION,CR
101,101,BT BATOK WEST AVE 6,13,1984,Y,N,N,N,N,N,BB,96,0,0,2,46,48,0,0,0,0,0,0,0,1.346706361,103.7469207,NIL,101 BUKIT BATOK WEST AVENUE 6 SINGAPORE 650101,650101,7,BUKIT BATOK CENTRAL,BKSZ07,BUKIT BATOK,BK,WEST REGION,WR
102,101,C'WEALTH CRES,10,1964,Y,N,N,N,N,N,QT,76,0,10,62,4,0,0,0,0,0,0,0,0,1.308051592,103.8008428,CRESCENT VIEW,101 COMMONWEALTH CRESCENT CRESCENT VIEW SINGAPORE 140101,140101,3,COMMONWEALTH,QTSZ03,QUEENSTOWN,QT,CENTRAL REGION,CR
103,101,CANBERRA ST,1,2019,N,N,N,Y,N,N,SB,0,0,0,0,0,0,0,0,0,0,0,0,0,1.451399986,103.83086,EASTCREEK @ CANBERRA,101 CANBERRA STREET EASTCREEK @ CANBERRA SINGAPORE 750101,750101,1,SEMBAWANG EAST,SBSZ01,SEMBAWANG,SB,NORTH REGION,NR
104,101,CLEMENTI ST 14,15,1984,Y,N,N,N,N,N,CL,112,0,0,0,18,94,0,0,0,0,0,0,0,1.322089368,103.7689334,SUNSET WAY RESIDENCE,101 CLEMENTI STREET 14 SUNSET WAY RESIDENCE SINGAPORE 120101,120101,2,SUNSET WAY,CLSZ02,CLEMENTI,CL,WEST REGION,WR
105,101,GANGSA RD,13,1986,Y,N,N,N,N,N,BP,60,0,0,0,0,0,60,0,0,0,0,0,0,1.379164316,103.7674393,NIL,101 GANGSA ROAD SINGAPORE 670101,670101,5,JELEBU,BPSZ05,BUKIT PANJANG,BP,WEST REGION,WR
106,101,HENDERSON CRES,12,1967,Y,N,N,N,N,N,BM,96,0,0,0,96,0,0,0,0,0,0,0,0,1.290717998,103.8216252,NIL,101 HENDERSON CRESCENT SINGAPORE 150101,150101,8,HENDERSON HILL,BMSZ08,BUKIT MERAH,BM,CENTRAL REGION,CR
107,101,HOUGANG AVE 1,9,1983,Y,N,N,Y,N,N,HG,108,0,0,0,108,0,0,0,0,0,0,0,0,1.354937478,103.8913606,NIL,101 HOUGANG AVENUE 1 SINGAPORE 530101,530101,7,LORONG AH SOO,HGSZ07,HOUGANG,HG,NORTH-EAST REGION,NER
108,101,JLN RAJAH,17,1980,Y,N,N,Y,N,N,KWN,128,0,0,0,128,0,0,0,0,0,0,0,0,1.328800862,103.850782,RAJAH COURT,101 JALAN RAJAH RAJAH COURT SINGAPORE 321101,321101,1,BALESTIER,NVSZ01,NOVENA,NV,CENTRAL REGION,CR
109,101,JURONG EAST ST 13,16,1982,Y,N,N,Y,N,N,JE,238,0,0,196,40,2,0,0,0,0,0,0,0,1.337011008,103.7387873,JURONG EAST VILLE,101 JURONG EAST STREET 13 JURONG EAST VILLE SINGAPORE 600101,600101,2,YUHUA EAST,JESZ02,JURONG EAST,JE,WEST REGION,WR
110,101,LENGKONG TIGA,4,1988,Y,N,N,N,N,N,BD,10,0,0,0,0,0,10,0,0,0,0,0,0,1.325159834,103.9108888,KEMBANGAN GARDENS,101 LENGKONG TIGA KEMBANGAN GARDENS SINGAPORE 410101,410101,3,KEMBANGAN,BDSZ03,BEDOK,BD,EAST REGION,ER
111,101,PASIR RIS ST 12,13,1988,Y,N,N,N,N,N,PRC,96,0,0,0,0,0,96,0,0,0,0,0,0,1.367050215,103.9581819,NIL,101 PASIR RIS STREET 12 SINGAPORE 510101,510101,5,PASIR RIS DRIVE,PRSZ05,PASIR RIS,PR,EAST REGION,ER
112,101,POTONG PASIR AVE 1,16,1984,Y,N,N,N,N,N,TP,120,0,0,120,0,0,0,0,0,0,0,0,0,1.333157101,103.8683804,NIL,101 POTONG PASIR AVENUE 1 SINGAPORE 350101,350101,9,POTONG PASIR,TPSZ09,TOA PAYOH,TP,CENTRAL REGION,CR
113,101,PUNGGOL FIELD,4,2001,N,N,N,N,Y,N,PG,0,0,0,0,0,0,0,0,0,0,0,0,0,1.398481661,103.9058081,MULTI STOREY CAR PARK,101 PUNGGOL FIELD MULTI STOREY CAR PARK SINGAPORE 820101,820101,4,PUNGGOL FIELD,PGSZ04,PUNGGOL,PG,NORTH-EAST REGION,NER
114,101,RIVERVALE WALK,17,1998,Y,N,N,Y,N,N,SK,131,0,0,0,56,75,0,0,0,0,0,0,0,1.38276429,103.899272,RIVERVALE COURT,101 RIVERVALE WALK RIVERVALE COURT SINGAPORE 540101,540101,2,RIVERVALE,SESZ02,SENGKANG,SE,NORTH-EAST REGION,NER
115,101,SERANGOON NTH AVE 1,13,1984,Y,N,N,N,N,N,SGN,144,0,0,0,144,0,0,0,0,0,0,0,0,1.37103632,103.8703609,HWI YOH COURT,101 SERANGOON NORTH AVENUE 1 HWI YOH COURT SINGAPORE 550101,550101,4,SERANGOON GARDEN,SGSZ04,SERANGOON,SG,NORTH-EAST REGION,NER
116,101,SIMEI ST 1,11,1988,Y,N,N,Y,N,N,TAP,140,0,0,0,88,52,0,0,0,0,0,0,0,1.340849911,103.9514337,NIL,101 SIMEI STREET 1 SINGAPORE 520101,520101,4,SIMEI,TMSZ04,TAMPINES,TM,EAST REGION,ER
117,101,SPOTTISWOODE PK RD,20,1973,Y,N,N,N,N,N,BM,76,0,0,0,76,0,0,0,0,0,0,0,0,1.275241413,103.8360458,SPOTTISWOODE PARK ESTATE,101 SPOTTISWOODE PARK ROAD SPOTTISWOODE PARK ESTATE SINGAPORE 080101,80101,16,EVERTON PARK,BMSZ16,BUKIT MERAH,BM,CENTRAL REGION,CR
118,101,TAMPINES ST 11,11,1981,Y,N,N,Y,N,N,TAP,120,0,0,80,40,0,0,0,0,0,0,0,0,1.347398708,103.9452924,SAINT LUKE'S ELDERCARE TAMPINES CENTRE,101 TAMPINES STREET 11 SAINT LUKE'S ELDERCARE TAMPINES CENTRE SINGAPORE 521101,521101,2,TAMPINES EAST,TMSZ02,TAMPINES,TM,EAST REGION,ER
119,101,TECK WHYE LANE,13,1988,Y,N,N,N,N,N,CCK,66,0,0,0,0,0,66,0,0,0,0,0,0,1.377889646,103.7542399,NIL,101 TECK WHYE LANE SINGAPORE 680101,680101,1,TECK WHYE,CKSZ01,CHOA CHU KANG,CK,WEST REGION,WR
120,101,TOWNER RD,4,1982,Y,Y,N,N,N,N,KWN,44,0,0,44,0,0,0,0,0,0,0,0,0,1.319432746,103.861091,OCBC TOWNER ROAD - 7 ELEVEN,101 TOWNER ROAD OCBC TOWNER ROAD - 7 ELEVEN SINGAPORE 322101,322101,1,BENDEMEER,KLSZ01,KALLANG,KL,CENTRAL REGION,CR
121,101,WHAMPOA DR,25,1973,Y,Y,N,N,N,N,KWN,96,0,0,0,96,0,0,0,0,0,0,0,0,1.320417102,103.8538139,WHAMPOA VIEW,101 WHAMPOA DRIVE WHAMPOA VIEW SINGAPORE 323101,323101,1,BALESTIER,NVSZ01,NOVENA,NV,CENTRAL REGION,CR
122,101,WOODLANDS ST 13,10,1984,Y,N,N,Y,N,N,WL,146,0,0,89,55,2,0,0,0,0,0,0,0,1.435981597,103.7819298,PCF SPARKLETOTS PRESCHOOL @ WOODGROVE 101 (CC),101 WOODLANDS STREET 13 PCF SPARKLETOTS PRESCHOOL @ WOODGROVE 101 (CC) SINGAPORE 730101,730101,6,WOODLANDS WEST,WDSZ06,WOODLANDS,WD,NORTH REGION,NR
123,101,YISHUN AVE 5,4,1977,Y,Y,N,N,N,N,YS,107,0,0,94,12,1,0,0,0,0,0,0,0,1.430535899,103.8276686,UOB YISHUN AVENUE 5,101 YISHUN AVENUE 5 UOB YISHUN AVENUE 5 SINGAPORE 760101,760101,9,YISHUN WEST,YSSZ09,YISHUN,YS,NORTH REGION,NR
124,101A,BIDADARI PK DR,16,2020,Y,N,N,N,N,N,TP,295,0,86,91,118,0,0,0,0,0,0,0,0,1.336854917,103.8709976,ALKAFF COURTVIEW,101A BIDADARI PARK DRIVE ALKAFF COURTVIEW SINGAPORE 341101,341101,11,SENNETT,TPSZ11,TOA PAYOH,TP,CENTRAL REGION,CR
125,101A,CANBERRA ST,15,2019,Y,N,N,N,N,N,SB,164,0,0,0,84,80,0,0,0,0,0,0,0,1.451738928,103.8304541,EASTCREEK @ CANBERRA,101A CANBERRA STREET EASTCREEK @ CANBERRA SINGAPORE 751101,751101,1,SEMBAWANG EAST,SBSZ01,SEMBAWANG,SB,NORTH REGION,NR
126,101A,LOR 2 TOA PAYOH,17,1992,Y,N,N,N,N,N,TP,64,0,0,0,0,0,64,0,0,0,0,0,0,1.339741267,103.8472642,TOA PAYOH PALM SPRING,101A LORONG 2 TOA PAYOH TOA PAYOH PALM SPRING SINGAPORE 310101,310101,3,BRADDELL,TPSZ03,TOA PAYOH,TP,CENTRAL REGION,CR
127,101A,PUNGGOL FIELD,16,2001,Y,N,N,N,N,N,PG,82,0,0,0,26,56,0,0,0,0,0,0,0,1.397946168,103.9059451,NIL,101A PUNGGOL FIELD SINGAPORE 821101,821101,4,PUNGGOL FIELD,PGSZ04,PUNGGOL,PG,NORTH-EAST REGION,NER
128,101A,YISHUN AVE 5,1,1984,N,Y,N,N,N,N,YS,0,0,0,0,0,0,0,0,0,0,0,0,0,1.43113229,103.8283671,NIL,101A YISHUN AVENUE 5 SINGAPORE 761101,761101,9,YISHUN WEST,YSSZ09,YISHUN,YS,NORTH REGION,NR
129,101B,CANBERRA ST,16,2019,Y,N,N,N,N,N,SB,240,0,150,30,60,0,0,0,0,0,0,0,0,1.451663104,103.8311749,EASTCREEK @ CANBERRA,101B CANBERRA STREET EASTCREEK @ CANBERRA SINGAPORE 752101,752101,1,SEMBAWANG EAST,SBSZ01,SEMBAWANG,SB,NORTH REGION,NR
130,101B,LOR 2 TOA PAYOH,13,1992,Y,N,N,N,N,N,TP,48,0,0,0,0,0,48,0,0,0,0,0,0,1.339598845,103.8476054,TOA PAYOH PALM SPRING,101B LORONG 2 TOA PAYOH TOA PAYOH PALM SPRING SINGAPORE 311101,311101,3,BRADDELL,TPSZ03,TOA PAYOH,TP,CENTRAL REGION,CR
131,101B,PUNGGOL FIELD,17,2001,Y,N,N,Y,N,N,PG,92,0,0,0,0,92,0,0,0,0,0,0,0,1.397847151,103.9064361,NIL,101B PUNGGOL FIELD SINGAPORE 822101,822101,4,PUNGGOL FIELD,PGSZ04,PUNGGOL,PG,NORTH-EAST REGION,NER
132,101B,YISHUN AVE 5,1,1984,N,Y,N,N,N,N,YS,0,0,0,0,0,0,0,0,0,0,0,0,0,1.431391617,103.8282301,NIL,101B YISHUN AVENUE 5 SINGAPORE 762101,762101,9,YISHUN WEST,YSSZ09,YISHUN,YS,NORTH REGION,NR
133,101C,LOR 2 TOA PAYOH,4,1992,N,N,N,N,Y,N,TP,0,0,0,0,0,0,0,0,0,0,0,0,0,1.339260187,103.8470638,NIL,101C LORONG 2 TOA PAYOH SINGAPORE 312101,312101,3,BRADDELL,TPSZ03,TOA PAYOH,TP,CENTRAL REGION,CR
134,101C,PUNGGOL FIELD,17,2001,Y,Y,N,Y,N,N,PG,86,0,0,0,0,86,0,0,0,0,0,0,0,1.398090458,103.9065693,NIL,101C PUNGGOL FIELD SINGAPORE 823101,823101,4,PUNGGOL FIELD,PGSZ04,PUNGGOL,PG,NORTH-EAST REGION,NER
135,101C,YISHUN AVE 5,1,1984,N,Y,N,N,N,N,YS,0,0,0,0,0,0,0,0,0,0,0,0,0,1.431532551,103.8279876,NIL,101C YISHUN AVENUE 5 SINGAPORE 763101,763101,9,YISHUN WEST,YSSZ09,YISHUN,YS,NORTH REGION,NR
136,101D,PUNGGOL FIELD,17,2001,Y,N,N,N,N,N,PG,85,0,0,0,28,57,0,0,0,0,0,0,0,1.398484785,103.9061439,NIL,101D PUNGGOL FIELD SINGAPORE 824101,824101,4,PUNGGOL FIELD,PGSZ04,PUNGGOL,PG,NORTH-EAST REGION,NER
137,102,ALJUNIED CRES,12,1977,Y,N,N,Y,N,N,GL,150,0,0,124,22,3,1,0,0,0,0,0,0,1.32043903,103.8824204,NIL,102 ALJUNIED CRESCENT SINGAPORE 380102,380102,4,ALJUNIED,GLSZ04,GEYLANG,GL,CENTRAL REGION,CR
138,102,ANG MO KIO AVE 3,12,1977,Y,N,N,Y,N,N,AMK,88,0,0,0,66,22,0,0,0,0,0,0,0,1.370650092,103.8394103,CHILD AT STREET 11 LTD,102 ANG MO KIO AVENUE 3 CHILD AT STREET 11 LTD SINGAPORE 560102,560102,6,KEBUN BAHRU,AMSZ06,ANG MO KIO,AM,NORTH-EAST REGION,NER
139,102,BEDOK RESERVOIR RD,4,1985,Y,N,N,N,N,N,BD,24,0,0,16,8,0,0,0,0,0,0,0,0,1.328491877,103.9092652,EUNOS VISTA,102 BEDOK RESERVOIR ROAD EUNOS VISTA SINGAPORE 470102,470102,1,KAKI BUKIT,BDSZ01,BEDOK,BD,EAST REGION,ER
140,102,BEDOK NTH AVE 4,14,1976,Y,N,N,N,N,N,BD,149,0,0,116,26,2,5,0,0,0,0,0,0,1.333906548,103.9374584,PEARL GARDEN,102 BEDOK NORTH AVENUE 4 PEARL GARDEN SINGAPORE 460102,460102,4,BEDOK NORTH,BDSZ04,BEDOK,BD,EAST REGION,ER
141,102,BISHAN ST 12,25,1986,Y,N,N,N,N,N,BH,92,0,0,0,0,84,8,0,0,0,0,0,0,1.345143123,103.8479908,BISHAN VIEW,102 BISHAN STREET 12 BISHAN VIEW SINGAPORE 570102,570102,3,BISHAN EAST,BSSZ03,BISHAN,BS,CENTRAL REGION,CR
142,102,BT PURMEI RD,10,1983,Y,N,N,Y,N,N,BM,147,0,0,93,54,0,0,0,0,0,0,0,0,1.27176738,103.826622,SASCO CHILD CARE CENTRE,102 BUKIT PURMEI ROAD SASCO CHILD CARE CENTRE SINGAPORE 090102,90102,15,TELOK BLANGAH RISE,BMSZ15,BUKIT MERAH,BM,CENTRAL REGION,CR
143,102,BT BATOK WEST AVE 6,13,1984,Y,N,N,N,N,N,BB,96,0,0,2,46,48,0,0,0,0,0,0,0,1.347329959,103.7473436,NIL,102 BUKIT BATOK WEST AVENUE 6 SINGAPORE 650102,650102,7,BUKIT BATOK CENTRAL,BKSZ07,BUKIT BATOK,BK,WEST REGION,WR
144,102,C'WEALTH CRES,10,1964,Y,N,N,N,N,N,QT,95,0,10,80,5,0,0,0,0,0,0,0,0,1.307824649,103.8006298,CRESCENT VIEW,102 COMMONWEALTH CRESCENT CRESCENT VIEW SINGAPORE 140102,140102,3,COMMONWEALTH,QTSZ03,QUEENSTOWN,QT,CENTRAL REGION,CR
145,102,CANBERRA ST,6,2019,N,N,N,N,Y,N,SB,0,0,0,0,0,0,0,0,0,0,0,0,0,1.451834491,103.8321067,EASTCREEK @ CANBERRA,102 CANBERRA STREET EASTCREEK @ CANBERRA SINGAPORE 750102,750102,1,SEMBAWANG EAST,SBSZ01,SEMBAWANG,SB,NORTH REGION,NR
146,102,CLEMENTI ST 14,4,1984,Y,N,N,N,N,N,CL,8,0,0,0,0,0,8,0,0,0,0,0,0,1.322285572,103.7692019,SUNSET WAY RESIDENCE,102 CLEMENTI STREET 14 SUNSET WAY RESIDENCE SINGAPORE 120102,120102,2,SUNSET WAY,CLSZ02,CLEMENTI,CL,WEST REGION,WR
147,102,DEPOT RD,1,2017,N,N,N,N,N,Y,BM,0,0,0,0,0,0,0,0,0,0,0,0,0,1.280337007,103.8135102,DEPOT HEIGHTS,102 DEPOT ROAD DEPOT HEIGHTS SINGAPORE 100102,100102,12,DEPOT ROAD,BMSZ12,BUKIT MERAH,BM,CENTRAL REGION,CR
148,102,GANGSA RD,10,1986,Y,N,N,N,N,N,BP,90,0,0,54,36,0,0,0,0,0,0,0,0,1.379107628,103.7681538,NIL,102 GANGSA ROAD SINGAPORE 670102,670102,5,JELEBU,BPSZ05,BUKIT PANJANG,BP,WEST REGION,WR
149,102,HENDERSON CRES,14,1967,Y,N,N,N,N,N,BM,140,0,0,0,140,0,0,0,0,0,0,0,0,1.290366187,103.8215771,NIL,102 HENDERSON CRESCENT SINGAPORE 150102,150102,8,HENDERSON HILL,BMSZ08,BUKIT MERAH,BM,CENTRAL REGION,CR
150,102,HOUGANG AVE 1,13,1983,Y,Y,N,N,N,N,HG,90,0,0,19,71,0,0,0,0,0,0,0,0,1.354964463,103.8908551,NIL,102 HOUGANG AVENUE 1 SINGAPORE 530102,530102,7,LORONG AH SOO,HGSZ07,HOUGANG,HG,NORTH-EAST REGION,NER
151,102,JLN RAJAH,12,1980,Y,Y,N,N,N,N,KWN,198,0,0,0,198,0,0,0,0,0,0,0,0,1.328223064,103.8515198,RAJAH COURT,102 JALAN RAJAH RAJAH COURT SINGAPORE 321102,321102,1,BALESTIER,NVSZ01,NOVENA,NV,CENTRAL REGION,CR
152,102,JLN DUSUN,25,1981,Y,N,N,N,N,N,KWN,96,0,0,0,0,96,0,0,0,0,0,0,0,1.327868743,103.8442096,AH HOOD GARDENS,102 JALAN DUSUN AH HOOD GARDENS SINGAPORE 320102,320102,1,BALESTIER,NVSZ01,NOVENA,NV,CENTRAL REGION,CR
153,102,JURONG EAST ST 13,12,1981,Y,N,N,N,N,N,JE,196,0,0,172,22,2,0,0,0,0,0,0,0,1.336096579,103.7382192,JURONG EAST VILLE,102 JURONG EAST STREET 13 JURONG EAST VILLE SINGAPORE 600102,600102,2,YUHUA EAST,JESZ02,JURONG EAST,JE,WEST REGION,WR
154,102,LENGKONG TIGA,14,1988,Y,N,N,N,N,N,BD,73,0,0,0,22,51,0,0,0,0,0,0,0,1.325579307,103.9106575,KEMBANGAN GARDENS,102 LENGKONG TIGA KEMBANGAN GARDENS SINGAPORE 410102,410102,3,KEMBANGAN,BDSZ03,BEDOK,BD,EAST REGION,ER
155,102,PASIR RIS ST 12,13,1988,Y,N,N,N,N,N,PRC,96,0,0,0,54,42,0,0,0,0,0,0,0,1.367484273,103.9580411,NIL,102 PASIR RIS STREET 12 SINGAPORE 510102,510102,5,PASIR RIS DRIVE,PRSZ05,PASIR RIS,PR,EAST REGION,ER
156,102,POTONG PASIR AVE 1,16,1983,Y,Y,N,Y,N,N,TP,167,0,0,144,20,0,3,0,0,0,0,0,0,1.333690127,103.8688106,NIL,102 POTONG PASIR AVENUE 1 SINGAPORE 350102,350102,9,POTONG PASIR,TPSZ09,TOA PAYOH,TP,CENTRAL REGION,CR
157,102,PUNGGOL FIELD,1,2001,N,N,N,N,N,Y,PG,0,0,0,0,0,0,0,0,0,0,0,0,0,1.398280578,103.9056544,NIL,102 PUNGGOL FIELD SINGAPORE 820102,820102,4,PUNGGOL FIELD,PGSZ04,PUNGGOL,PG,NORTH-EAST REGION,NER
158,102,RIVERVALE WALK,17,1998,Y,N,N,Y,N,N,SK,129,0,0,0,0,0,129,0,0,0,0,0,0,1.38180761,103.9008932,RIVERVALE COURT,102 RIVERVALE WALK RIVERVALE COURT SINGAPORE 540102,540102,2,RIVERVALE,SESZ02,SENGKANG,SE,NORTH-EAST REGION,NER
159,102,SERANGOON NTH AVE 1,4,1984,Y,N,N,N,N,N,SGN,24,0,0,16,8,0,0,0,0,0,0,0,0,1.370843273,103.8711536,HWI YOH COURT,102 SERANGOON NORTH AVENUE 1 HWI YOH COURT SINGAPORE 550102,550102,4,SERANGOON GARDEN,SGSZ04,SERANGOON,SG,NORTH-EAST REGION,NER
160,102,SIMEI ST 1,11,1988,Y,N,N,Y,N,N,TAP,100,0,0,0,64,36,0,0,0,0,0,0,0,1.341347247,103.9513551,CANA B-P CHURCH BASC,102 SIMEI STREET 1 CANA B-P CHURCH BASC SINGAPORE 520102,520102,4,SIMEI,TMSZ04,TAMPINES,TM,EAST REGION,ER
161,102,SPOTTISWOODE PK RD,20,1973,Y,Y,N,N,N,N,BM,76,0,0,0,76,0,0,0,0,0,0,0,0,1.27472973,103.8362355,SPOTTISWOODE PARK ESTATE,102 SPOTTISWOODE PARK ROAD SPOTTISWOODE PARK ESTATE SINGAPORE 080102,80102,16,EVERTON PARK,BMSZ16,BUKIT MERAH,BM,CENTRAL REGION,CR
162,102,TAMPINES ST 11,11,1982,Y,N,N,N,N,N,TAP,140,0,0,90,50,0,0,0,0,0,0,0,0,1.346716163,103.9455214,NIL,102 TAMPINES STREET 11 SINGAPORE 521102,521102,2,TAMPINES EAST,TMSZ02,TAMPINES,TM,EAST REGION,ER
163,102,TECK WHYE LANE,9,1988,Y,N,N,N,N,N,CCK,64,0,0,0,36,28,0,0,0,0,0,0,0,1.377082841,103.7543944,NIL,102 TECK WHYE LANE SINGAPORE 680102,680102,1,TECK WHYE,CKSZ01,CHOA CHU KANG,CK,WEST REGION,WR
164,102,TOWNER RD,4,1983,Y,Y,N,N,N,N,KWN,36,0,0,36,0,0,0,0,0,0,0,0,0,1.320249395,103.8585486,TOWNERVILLE,102 TOWNER ROAD TOWNERVILLE SINGAPORE 327826,327826,1,BENDEMEER,KLSZ01,KALLANG,KL,CENTRAL REGION,CR
165,102,WOODLANDS ST 13,12,1984,Y,N,N,Y,N,N,WL,110,0,0,65,45,0,0,0,0,0,0,0,0,1.436082949,103.7811996,NIL,102 WOODLANDS STREET 13 SINGAPORE 730102,730102,6,WOODLANDS WEST,WDSZ06,WOODLANDS,WD,NORTH REGION,NR
166,102,YISHUN AVE 5,4,1984,N,Y,N,N,N,N,YS,0,0,0,0,0,0,0,0,0,0,0,0,0,1.430618304,103.828763,OCBC YISHUN AVE 5 - 7 ELEVEN,102 YISHUN AVENUE 5 OCBC YISHUN AVE 5 - 7 ELEVEN SINGAPORE 760102,760102,9,YISHUN WEST,YSSZ09,YISHUN,YS,NORTH REGION,NR
167,102A,BIDADARI PK DR,16,2020,Y,N,N,N,N,Y,TP,205,0,66,0,139,0,0,0,0,0,0,0,0,1.337356638,103.8715018,ALKAFF COURTVIEW,102A BIDADARI PARK DRIVE ALKAFF COURTVIEW SINGAPORE 341102,341102,11,SENNETT,TPSZ11,TOA PAYOH,TP,CENTRAL REGION,CR
168,102A,CANBERRA ST,17,2019,Y,N,N,N,N,N,SB,190,0,0,0,94,96,0,0,0,0,0,0,0,1.451193905,103.8322276,EASTCREEK @ CANBERRA,102A CANBERRA STREET EASTCREEK @ CANBERRA SINGAPORE 751102,751102,1,SEMBAWANG EAST,SBSZ01,SEMBAWANG,SB,NORTH REGION,NR
169,102A,DEPOT RD,21,2016,Y,N,N,Y,N,N,BM,114,0,39,0,0,0,0,0,75,0,0,0,0,1.280291346,103.8133324,DEPOT HEIGHTS,102A DEPOT ROAD DEPOT HEIGHTS SINGAPORE 101102,101102,12,DEPOT ROAD,BMSZ12,BUKIT MERAH,BM,CENTRAL REGION,CR
170,102A,PUNGGOL FIELD,17,2001,Y,N,N,N,N,N,PG,85,0,0,0,28,57,0,0,0,0,0,0,0,1.398833183,103.9057836,NIL,102A PUNGGOL FIELD SINGAPORE 821102,821102,4,PUNGGOL FIELD,PGSZ04,PUNGGOL,PG,NORTH-EAST REGION,NER
171,102A,RIVERVALE WALK,5,1997,N,N,N,N,Y,N,SK,0,0,0,0,0,0,0,0,0,0,0,0,0,1.38215139,103.9000751,MULTI STOREY CAR PARK,102A RIVERVALE WALK MULTI STOREY CAR PARK SINGAPORE 541102,541102,2,RIVERVALE,SESZ02,SENGKANG,SE,NORTH-EAST REGION,NER
172,102B,BIDADARI PK DR,16,2020,Y,N,N,N,N,N,TP,200,0,0,52,148,0,0,0,0,0,0,0,0,1.336220454,103.8718471,ALKAFF COURTVIEW,102B BIDADARI PARK DRIVE ALKAFF COURTVIEW SINGAPORE 342102,342102,11,SENNETT,TPSZ11,TOA PAYOH,TP,CENTRAL REGION,CR
173,102B,CANBERRA ST,16,2019,Y,N,N,N,N,N,SB,210,0,180,30,0,0,0,0,0,0,0,0,0,1.451239704,103.8314364,EASTCREEK @ CANBERRA,102B CANBERRA STREET EASTCREEK @ CANBERRA SINGAPORE 752102,752102,1,SEMBAWANG EAST,SBSZ01,SEMBAWANG,SB,NORTH REGION,NR
174,102B,PUNGGOL FIELD,17,2001,Y,N,N,N,N,N,PG,86,0,0,0,0,86,0,0,0,0,0,0,0,1.399085258,103.9054714,NIL,102B PUNGGOL FIELD SINGAPORE 822102,822102,4,PUNGGOL FIELD,PGSZ04,PUNGGOL,PG,NORTH-EAST REGION,NER
175,102C,CANBERRA ST,1,2020,N,N,N,N,N,Y,SB,0,0,0,0,0,0,0,0,0,0,0,0,0,1.45155993,103.8317651,EASTCREEK @ CANBERRA,102C CANBERRA STREET EASTCREEK @ CANBERRA SINGAPORE 753102,753102,1,SEMBAWANG EAST,SBSZ01,SEMBAWANG,SB,NORTH REGION,NR
176,102C,PUNGGOL FIELD,17,2000,Y,N,N,N,N,N,PG,92,0,0,0,0,92,0,0,0,0,0,0,0,1.398761278,103.904939,NIL,102C PUNGGOL FIELD SINGAPORE 823102,823102,4,PUNGGOL FIELD,PGSZ04,PUNGGOL,PG,NORTH-EAST REGION,NER
177,102D,PUNGGOL FIELD,16,2001,Y,N,N,N,N,N,PG,82,0,0,0,26,56,0,0,0,0,0,0,0,1.398480708,103.9052498,NIL,102D PUNGGOL FIELD SINGAPORE 824102,824102,4,PUNGGOL FIELD,PGSZ04,PUNGGOL,PG,NORTH-EAST REGION,NER
178,103,AH HOOD RD,25,1981,Y,N,N,N,N,N,KWN,96,0,0,0,0,96,0,0,0,0,0,0,0,1.327962675,103.844827,AH HOOD GARDENS,103 AH HOOD ROAD AH HOOD GARDENS SINGAPORE 320103,320103,1,BALESTIER,NVSZ01,NOVENA,NV,CENTRAL REGION,CR
179,103,ALJUNIED CRES,12,1977,Y,N,N,N,N,N,GL,154,0,0,0,0,0,0,0,0,0,154,0,0,1.320516922,103.8832703,NIL,103 ALJUNIED CRESCENT SINGAPORE 380103,380103,4,ALJUNIED,GLSZ04,GEYLANG,GL,CENTRAL REGION,CR
180,103,ANG MO KIO AVE 3,12,1977,Y,N,N,Y,N,N,AMK,131,0,0,97,33,1,0,0,0,0,0,0,0,1.371016578,103.8393048,KEBUN BARU HEIGHTS,103 ANG MO KIO AVENUE 3 KEBUN BARU HEIGHTS SINGAPORE 560103,560103,6,KEBUN BAHRU,AMSZ06,ANG MO KIO,AM,NORTH-EAST REGION,NER
181,103,BEDOK NTH AVE 4,14,1976,Y,N,N,Y,N,N,BD,154,0,0,126,26,0,2,0,0,0,0,0,0,1.333482588,103.9375425,PCF SPARKLETOTS PRESCHOOL @ FENGSHAN BLK 103 (KN),103 BEDOK NORTH AVENUE 4 PCF SPARKLETOTS PRESCHOOL @ FENGSHAN BLK 103 (KN) SINGAPORE 460103,460103,4,BEDOK NORTH,BDSZ04,BEDOK,BD,EAST REGION,ER
182,103,BEDOK RESERVOIR RD,12,1985,Y,Y,N,N,N,N,BD,154,0,0,88,66,0,0,0,0,0,0,0,0,1.328770222,103.9093814,EUNOS VISTA,103 BEDOK RESERVOIR ROAD EUNOS VISTA SINGAPORE 470103,470103,1,KAKI BUKIT,BDSZ01,BEDOK,BD,EAST REGION,ER
183,103,BISHAN ST 12,25,1986,Y,N,N,N,N,N,BH,92,0,0,0,0,84,8,0,0,0,0,0,0,1.345512491,103.8483142,BISHAN VIEW,103 BISHAN STREET 12 BISHAN VIEW SINGAPORE 570103,570103,3,BISHAN EAST,BSSZ03,BISHAN,BS,CENTRAL REGION,CR
184,103,BT PURMEI RD,11,1982,Y,Y,N,N,N,N,BM,119,0,0,68,50,1,0,0,0,0,0,0,0,1.272085585,103.8254956,BUKIT PURMEI VILLE,103 BUKIT PURMEI ROAD BUKIT PURMEI VILLE SINGAPORE 090103,90103,15,TELOK BLANGAH RISE,BMSZ15,BUKIT MERAH,BM,CENTRAL REGION,CR
185,103,BT BATOK CTRL,13,1984,Y,N,N,Y,N,N,BB,96,0,0,4,44,48,0,0,0,0,0,0,0,1.348354388,103.7480941,BUKIT BATOK NEIGHBOURHOOD POLICE POST,103 BUKIT BATOK CENTRAL BUKIT BATOK NEIGHBOURHOOD POLICE POST SINGAPORE 650103,650103,7,BUKIT BATOK CENTRAL,BKSZ07,BUKIT BATOK,BK,WEST REGION,WR
186,103,C'WEALTH CRES,10,1964,Y,N,N,N,N,N,QT,99,0,0,0,0,0,0,0,0,0,99,0,0,1.30834597,103.800214,NIL,103 COMMONWEALTH CRESCENT SINGAPORE 140103,140103,3,COMMONWEALTH,QTSZ03,QUEENSTOWN,QT,CENTRAL REGION,CR
187,103,CANBERRA ST,1,2020,N,N,N,N,N,Y,SB,0,0,0,0,0,0,0,0,0,0,0,0,0,1.450676054,103.8307576,EASTCREEK @ CANBERRA,103 CANBERRA STREET EASTCREEK @ CANBERRA SINGAPORE 750103,750103,1,SEMBAWANG EAST,SBSZ01,SEMBAWANG,SB,NORTH REGION,NR
188,103,CLEMENTI ST 14,14,1984,Y,N,N,N,N,N,CL,104,0,0,0,18,86,0,0,0,0,0,0,0,1.322588548,103.7691762,SUNSET WAY RESIDENCE,103 CLEMENTI STREET 14 SUNSET WAY RESIDENCE SINGAPORE 120103,120103,2,SUNSET WAY,CLSZ02,CLEMENTI,CL,WEST REGION,WR
189,103,EDGEFIELD PLAINS,1,2001,N,N,N,N,N,Y,PG,0,0,0,0,0,0,0,0,0,0,0,0,0,1.397473398,103.9048218,NIL,103 EDGEFIELD PLAINS SINGAPORE 820103,820103,4,PUNGGOL FIELD,PGSZ04,PUNGGOL,PG,NORTH-EAST REGION,NER
190,103,GANGSA RD,4,1986,Y,Y,N,N,N,N,BP,26,0,0,19,7,0,0,0,0,0,0,0,0,1.378670708,103.7685384,NIL,103 GANGSA ROAD SINGAPORE 670103,670103,5,JELEBU,BPSZ05,BUKIT PANJANG,BP,WEST REGION,WR
191,103,HENDERSON CRES,14,1967,Y,N,N,N,N,N,BM,140,0,0,0,140,0,0,0,0,0,0,0,0,1.289742097,103.8213757,NIL,103 HENDERSON CRESCENT SINGAPORE 150103,150103,8,HENDERSON HILL,BMSZ08,BUKIT MERAH,BM,CENTRAL REGION,CR
192,103,HOUGANG AVE 1,13,1983,Y,N,N,N,N,N,HG,81,0,0,0,30,51,0,0,0,0,0,0,0,1.355282234,103.8903601,NIL,103 HOUGANG AVENUE 1 SINGAPORE 530103,530103,7,LORONG AH SOO,HGSZ07,HOUGANG,HG,NORTH-EAST REGION,NER
193,103,JLN RAJAH,25,1983,Y,N,N,N,N,N,KWN,144,0,0,0,48,96,0,0,0,0,0,0,0,1.327341433,103.8527807,NIL,103 JALAN RAJAH SINGAPORE 321103,321103,1,BALESTIER,NVSZ01,NOVENA,NV,CENTRAL REGION,CR
194,103,JURONG EAST ST 13,25,1982,Y,N,N,N,N,N,JE,96,0,0,0,0,96,0,0,0,0,0,0,0,1.33668715,103.7380592,JURONG EAST VILLE,103 JURONG EAST STREET 13 JURONG EAST VILLE SINGAPORE 600103,600103,2,YUHUA EAST,JESZ02,JURONG EAST,JE,WEST REGION,WR
195,103,LENGKONG TIGA,14,1988,Y,N,N,N,N,N,BD,73,0,0,0,22,51,0,0,0,0,0,0,0,1.325855463,103.9105989,KEMBANGAN GARDENS,103 LENGKONG TIGA KEMBANGAN GARDENS SINGAPORE 410103,410103,3,KEMBANGAN,BDSZ03,BEDOK,BD,EAST REGION,ER
196,103,LOR 1 TOA PAYOH,10,1967,Y,N,N,Y,N,N,TP,159,0,0,0,0,0,0,0,0,0,159,0,0,1.34010929,103.8481846,TOA PAYOH BLOOM,103 LORONG 1 TOA PAYOH TOA PAYOH BLOOM SINGAPORE 310103,310103,3,BRADDELL,TPSZ03,TOA PAYOH,TP,CENTRAL REGION,CR
197,103,PASIR RIS ST 12,13,1988,Y,N,N,N,N,N,PRC,96,0,0,0,54,42,0,0,0,0,0,0,0,1.367695081,103.9584042,NIL,103 PASIR RIS STREET 12 SINGAPORE 510103,510103,5,PASIR RIS DRIVE,PRSZ05,PASIR RIS,PR,EAST REGION,ER
198,103,POTONG PASIR AVE 1,4,1983,Y,N,N,N,N,N,TP,63,0,0,62,0,0,1,0,0,0,0,0,0,1.334113387,103.8695237,NIL,103 POTONG PASIR AVENUE 1 SINGAPORE 350103,350103,9,POTONG PASIR,TPSZ09,TOA PAYOH,TP,CENTRAL REGION,CR
199,103,RIVERVALE WALK,17,1998,Y,Y,N,Y,N,N,SK,123,0,0,0,0,0,123,0,0,0,0,0,0,1.382911467,103.9012086,PCF SPARKLETOTS PRESCHOOL @ PUNGGOL EAST BLK 103 (KN),103 RIVERVALE WALK PCF SPARKLETOTS PRESCHOOL @ PUNGGOL EAST BLK 103 (KN) SINGAPORE 540103,540103,2,RIVERVALE,SESZ02,SENGKANG,SE,NORTH-EAST REGION,NER
200,103,SERANGOON NTH AVE 1,13,1984,Y,N,N,Y,N,N,SGN,144,0,0,0,144,0,0,0,0,0,0,0,0,1.37067353,103.8702639,AMAZING STAR MONTESSORI HOUSE (SN),103 SERANGOON NORTH AVENUE 1 AMAZING STAR MONTESSORI HOUSE (SN) SINGAPORE 550103,550103,4,SERANGOON GARDEN,SGSZ04,SERANGOON,SG,NORTH-EAST REGION,NER
201,103,SPOTTISWOODE PK RD,25,1976,Y,N,N,N,N,N,BM,94,0,0,0,0,92,2,0,0,0,0,0,0,1.274660969,103.8352798,SPOTTISWOODE PARK ESTATE,103 SPOTTISWOODE PARK ROAD SPOTTISWOODE PARK ESTATE SINGAPORE 080103,80103,16,EVERTON PARK,BMSZ16,BUKIT MERAH,BM,CENTRAL REGION,CR
202,103,TAMPINES ST 11,10,1982,Y,N,N,N,N,N,TAP,126,0,0,72,54,0,0,0,0,0,0,0,0,1.347696625,103.9462299,NIL,103 TAMPINES STREET 11 SINGAPORE 520103,520103,2,TAMPINES EAST,TMSZ02,TAMPINES,TM,EAST REGION,ER
203,103,TECK WHYE LANE,9,1988,Y,Y,N,N,N,N,CCK,80,0,0,0,52,28,0,0,0,0,0,0,0,1.377130782,103.753556,NIL,103 TECK WHYE LANE SINGAPORE 680103,680103,1,TECK WHYE,CKSZ01,CHOA CHU KANG,CK,WEST REGION,WR
204,103,TOWNER RD,11,1982,Y,N,N,Y,N,N,KWN,80,0,0,0,40,40,0,0,0,0,0,0,0,1.320643815,103.8616341,NIL,103 TOWNER ROAD SINGAPORE 322103,322103,1,BENDEMEER,KLSZ01,KALLANG,KL,CENTRAL REGION,CR
205,103,WOODLANDS ST 13,4,1984,Y,N,N,N,N,N,WL,32,0,0,24,8,0,0,0,0,0,0,0,0,1.436621232,103.7809767,NIL,103 WOODLANDS STREET 13 SINGAPORE 730103,730103,6,WOODLANDS WEST,WDSZ06,WOODLANDS,WD,NORTH REGION,NR
206,103,YISHUN RING RD,4,1984,Y,Y,N,N,N,N,YS,64,0,0,60,4,0,0,0,0,0,0,0,0,1.431369577,103.8288928,OCBC YISHUN RING ROAD,103 YISHUN RING ROAD OCBC YISHUN RING ROAD SINGAPORE 760103,760103,9,YISHUN WEST,YSSZ09,YISHUN,YS,NORTH REGION,NR
207,103A,BIDADARI PK DR,17,2020,Y,N,N,N,N,N,TP,116,0,0,56,60,0,0,0,0,0,0,0,0,1.335611337,103.8717283,ALKAFF COURTVIEW,103A BIDADARI PARK DRIVE ALKAFF COURTVIEW SINGAPORE 341103,341103,11,SENNETT,TPSZ11,TOA PAYOH,TP,CENTRAL REGION,CR
208,103A,CANBERRA ST,15,2019,Y,N,N,N,N,N,SB,224,0,140,28,56,0,0,0,0,0,0,0,0,1.451030061,103.830534,EASTCREEK @ CANBERRA,103A CANBERRA STREET EASTCREEK @ CANBERRA SINGAPORE 751103,751103,1,SEMBAWANG EAST,SBSZ01,SEMBAWANG,SB,NORTH REGION,NR
209,103A,DEPOT RD,25,1999,Y,N,N,N,N,N,BM,96,0,0,0,96,0,0,0,0,0,0,0,0,1.280701976,103.8133534,DEPOT HEIGHTS,103A DEPOT ROAD DEPOT HEIGHTS SINGAPORE 101103,101103,12,DEPOT ROAD,BMSZ12,BUKIT MERAH,BM,CENTRAL REGION,CR
210,103A,EDGEFIELD PLAINS,17,2000,Y,N,N,N,N,N,PG,96,0,0,0,0,96,0,0,0,0,0,0,0,1.398255318,103.904754,NIL,103A EDGEFIELD PLAINS SINGAPORE 821103,821103,4,PUNGGOL FIELD,PGSZ04,PUNGGOL,PG,NORTH-EAST REGION,NER
211,103A,RIVERVALE WALK,5,1998,N,N,N,N,Y,N,SK,0,0,0,0,0,0,0,0,0,0,0,0,0,1.383215089,103.9006576,MULTI STOREY CAR PARK,103A RIVERVALE WALK MULTI STOREY CAR PARK SINGAPORE 541103,541103,2,RIVERVALE,SESZ02,SENGKANG,SE,NORTH-EAST REGION,NER
212,103B,BIDADARI PK DR,16,2020,Y,N,N,N,N,N,TP,152,0,0,76,76,0,0,0,0,0,0,0,0,1.335089857,103.8713375,ALKAFF COURTVIEW,103B BIDADARI PARK DRIVE ALKAFF COURTVIEW SINGAPORE 342103,342103,11,SENNETT,TPSZ11,TOA PAYOH,TP,CENTRAL REGION,CR
213,103B,CANBERRA ST,15,2019,Y,N,N,N,N,N,SB,224,0,140,28,56,0,0,0,0,0,0,0,0,1.450565995,103.8312387,EASTCREEK @ CANBERRA,103B CANBERRA STREET EASTCREEK @ CANBERRA SINGAPORE 752103,752103,1,SEMBAWANG EAST,SBSZ01,SEMBAWANG,SB,NORTH REGION,NR
214,103B,DEPOT RD,20,1999,Y,N,N,N,N,N,BM,76,0,0,0,38,38,0,0,0,0,0,0,0,1.280736924,103.8131357,DEPOT HEIGHTS,103B DEPOT ROAD DEPOT HEIGHTS SINGAPORE 102103,102103,12,DEPOT ROAD,BMSZ12,BUKIT MERAH,BM,CENTRAL REGION,CR
215,103B,EDGEFIELD PLAINS,16,2000,Y,N,N,N,N,N,PG,90,0,0,0,0,90,0,0,0,0,0,0,0,1.397731275,103.9046854,NIL,103B EDGEFIELD PLAINS SINGAPORE 822103,822103,4,PUNGGOL FIELD,PGSZ04,PUNGGOL,PG,NORTH-EAST REGION,NER
216,103C,EDGEFIELD PLAINS,16,2001,Y,N,N,N,N,N,PG,90,0,0,0,0,90,0,0,0,0,0,0,0,1.397266608,103.9045384,NIL,103C EDGEFIELD PLAINS SINGAPORE 823103,823103,4,PUNGGOL FIELD,PGSZ04,PUNGGOL,PG,NORTH-EAST REGION,NER
217,104,ALJUNIED CRES,12,1977,Y,N,N,Y,N,N,GL,88,0,0,0,88,0,0,0,0,0,0,0,0,1.32007896,103.8828136,PU TI CHILD CARE CENTRE,104 ALJUNIED CRESCENT PU TI CHILD CARE CENTRE SINGAPORE 380104,380104,4,ALJUNIED,GLSZ04,GEYLANG,GL,CENTRAL REGION,CR
218,104,BEDOK NTH AVE 4,14,1976,Y,N,N,Y,N,N,BD,153,0,0,124,26,0,3,0,0,0,0,0,0,1.333298521,103.9366015,PEARL GARDEN,104 BEDOK NORTH AVENUE 4 PEARL GARDEN SINGAPORE 460104,460104,4,BEDOK NORTH,BDSZ04,BEDOK,BD,EAST REGION,ER
219,104,BEDOK RESERVOIR RD,15,1985,Y,N,N,N,N,N,BD,84,0,0,0,12,72,0,0,0,0,0,0,0,1.329245367,103.9099237,EUNOS VISTA,104 BEDOK RESERVOIR ROAD EUNOS VISTA SINGAPORE 470104,470104,1,KAKI BUKIT,BDSZ01,BEDOK,BD,EAST REGION,ER
220,104,BISHAN ST 12,4,1985,Y,N,N,N,N,N,BH,24,0,0,16,8,0,0,0,0,0,0,0,0,1.345675021,103.8480329,BISHAN VIEW,104 BISHAN STREET 12 BISHAN VIEW SINGAPORE 570104,570104,3,BISHAN EAST,BSSZ03,BISHAN,BS,CENTRAL REGION,CR
221,104,BT PURMEI RD,12,1983,Y,N,N,N,N,N,BM,132,0,0,88,44,0,0,0,0,0,0,0,0,1.272398536,103.8256255,BUKIT PURMEI VILLE,104 BUKIT PURMEI ROAD BUKIT PURMEI VILLE SINGAPORE 090104,90104,15,TELOK BLANGAH RISE,BMSZ15,BUKIT MERAH,BM,CENTRAL REGION,CR
222,104,BT BATOK CTRL,8,1984,Y,N,N,Y,N,N,BB,88,0,0,0,88,0,0,0,0,0,0,0,0,1.348995003,103.7472582,NIL,104 BUKIT BATOK CENTRAL SINGAPORE 650104,650104,7,BUKIT BATOK CENTRAL,BKSZ07,BUKIT BATOK,BK,WEST REGION,WR
223,104,C'WEALTH CRES,10,1964,Y,N,N,Y,N,N,QT,99,0,0,0,0,0,0,0,0,0,99,0,0,1.307958753,103.7999769,NIL,104 COMMONWEALTH CRESCENT SINGAPORE 140104,140104,3,COMMONWEALTH,QTSZ03,QUEENSTOWN,QT,CENTRAL REGION,CR
224,104,CANBERRA ST,1,2017,N,N,N,N,N,Y,SB,0,0,0,0,0,0,0,0,0,0,0,0,0,1.450279674,103.8318969,EASTBROOK @ CANBERRA,104 CANBERRA STREET EASTBROOK @ CANBERRA SINGAPORE 750104,750104,1,SEMBAWANG EAST,SBSZ01,SEMBAWANG,SB,NORTH REGION,NR
225,104,CLEMENTI ST 14,4,1984,Y,N,N,N,N,N,CL,16,0,0,0,0,0,16,0,0,0,0,0,0,1.322949685,103.7691892,SUNSET WAY RESIDENCE,104 CLEMENTI STREET 14 SUNSET WAY RESIDENCE SINGAPORE 120104,120104,2,SUNSET WAY,CLSZ02,CLEMENTI,CL,WEST REGION,WR
226,104,GANGSA RD,10,1986,Y,N,N,N,N,N,BP,90,0,0,54,36,0,0,0,0,0,0,0,0,1.378803995,103.7679688,NIL,104 GANGSA ROAD SINGAPORE 670104,670104,5,JELEBU,BPSZ05,BUKIT PANJANG,BP,WEST REGION,WR
227,104,HENDERSON CRES,12,1967,Y,N,N,N,N,N,BM,96,0,0,0,96,0,0,0,0,0,0,0,0,1.289369275,103.8215381,NIL,104 HENDERSON CRESCENT SINGAPORE 150104,150104,8,HENDERSON HILL,BMSZ08,BUKIT MERAH,BM,CENTRAL REGION,CR
228,104,HOUGANG AVE 1,4,1983,Y,Y,N,N,N,N,HG,8,0,0,8,0,0,0,0,0,0,0,0,0,1.354784387,103.8903185,NIL,104 HOUGANG AVENUE 1 SINGAPORE 530104,530104,7,LORONG AH SOO,HGSZ07,HOUGANG,HG,NORTH-EAST REGION,NER
229,104,JLN RAJAH,25,1983,Y,N,N,Y,N,N,KWN,144,0,0,0,48,96,0,0,0,0,0,0,0,1.32780497,103.8532623,NIL,104 JALAN RAJAH SINGAPORE 321104,321104,1,BALESTIER,NVSZ01,NOVENA,NV,CENTRAL REGION,CR
230,104,JLN BT MERAH,12,1967,Y,N,N,N,N,N,BM,216,0,0,0,0,0,0,0,0,0,216,0,0,1.281025155,103.8244609,TIONG BAHRU ORCHID,104 JALAN BUKIT MERAH TIONG BAHRU ORCHID SINGAPORE 160104,160104,11,KAMPONG TIONG BAHRU,BMSZ11,BUKIT MERAH,BM,CENTRAL REGION,CR
231,104,JLN DUSUN,4,1980,Y,N,N,N,N,N,KWN,24,0,0,0,24,0,0,0,0,0,0,0,0,1.328425305,103.8441424,AH HOOD GARDENS,104 JALAN DUSUN AH HOOD GARDENS SINGAPORE 320104,320104,1,BALESTIER,NVSZ01,NOVENA,NV,CENTRAL REGION,CR
232,104,JURONG EAST ST 13,4,1982,Y,Y,N,N,N,N,JE,20,0,0,20,0,0,0,0,0,0,0,0,0,1.336584653,103.7376233,JURONG EAST VILLE,104 JURONG EAST STREET 13 JURONG EAST VILLE SINGAPORE 600104,600104,2,YUHUA EAST,JESZ02,JURONG EAST,JE,WEST REGION,WR
233,104,LENGKONG TIGA,9,1988,Y,N,N,N,N,N,BD,55,0,0,0,0,0,55,0,0,0,0,0,0,1.325634967,103.9098152,KEMBANGAN GARDENS,104 LENGKONG TIGA KEMBANGAN GARDENS SINGAPORE 410104,410104,3,KEMBANGAN,BDSZ03,BEDOK,BD,EAST REGION,ER
234,104,LOR 1 TOA PAYOH,10,1967,Y,N,N,N,N,N,TP,160,0,0,0,0,0,0,0,0,0,160,0,0,1.340108877,103.8491078,TOA PAYOH BLOOM,104 LORONG 1 TOA PAYOH TOA PAYOH BLOOM SINGAPORE 310104,310104,3,BRADDELL,TPSZ03,TOA PAYOH,TP,CENTRAL REGION,CR
235,104,PASIR RIS ST 12,11,1988,Y,N,N,Y,N,N,PRC,130,0,0,0,78,52,0,0,0,0,0,0,0,1.367952786,103.9587026,NIL,104 PASIR RIS STREET 12 SINGAPORE 510104,510104,5,PASIR RIS DRIVE,PRSZ05,PASIR RIS,PR,EAST REGION,ER
236,104,POTONG PASIR AVE 1,16,1984,Y,Y,N,N,N,N,TP,174,0,0,122,48,0,4,0,0,0,0,0,0,1.334339169,103.8691589,NIL,104 POTONG PASIR AVENUE 1 SINGAPORE 350104,350104,9,POTONG PASIR,TPSZ09,TOA PAYOH,TP,CENTRAL REGION,CR
237,104,RIVERVALE WALK,17,1997,Y,N,N,N,N,N,SK,78,0,0,0,60,18,0,0,0,0,0,0,0,1.382627459,103.9009299,RIVERVALE COURT,104 RIVERVALE WALK RIVERVALE COURT SINGAPORE 540104,540104,2,RIVERVALE,SESZ02,SENGKANG,SE,NORTH-EAST REGION,NER
238,104,SERANGOON NTH AVE 1,4,1984,Y,N,N,N,N,N,SGN,24,0,0,16,8,0,0,0,0,0,0,0,0,1.370593162,103.8710868,HWI YOH COURT,104 SERANGOON NORTH AVENUE 1 HWI YOH COURT SINGAPORE 550104,550104,4,SERANGOON GARDEN,SGSZ04,SERANGOON,SG,NORTH-EAST REGION,NER
239,104,SPOTTISWOODE PK RD,25,1976,Y,N,N,Y,N,N,BM,94,0,0,0,0,92,2,0,0,0,0,0,0,1.274427547,103.8348788,SPOTTISWOODE PARK ESTATE,104 SPOTTISWOODE PARK ROAD SPOTTISWOODE PARK ESTATE SINGAPORE 080104,80104,16,EVERTON PARK,BMSZ16,BUKIT MERAH,BM,CENTRAL REGION,CR
240,104,TAMPINES ST 11,11,1982,Y,N,N,N,N,N,TAP,119,0,0,78,40,0,1,0,0,0,0,0,0,1.347205767,103.9466418,NIL,104 TAMPINES STREET 11 SINGAPORE 520104,520104,2,TAMPINES EAST,TMSZ02,TAMPINES,TM,EAST REGION,ER
241,104,TECK WHYE LANE,9,1988,Y,N,N,N,N,N,CCK,80,0,0,0,52,28,0,0,0,0,0,0,0,1.377081621,103.7528704,NIL,104 TECK WHYE LANE SINGAPORE 680104,680104,1,TECK WHYE,CKSZ01,CHOA CHU KANG,CK,WEST REGION,WR
242,104,TOWNER RD,11,1982,Y,N,N,Y,N,N,KWN,90,0,0,0,40,50,0,0,0,0,0,0,0,1.320289307,103.8585102,TOWNERVILLE,104 TOWNER ROAD TOWNERVILLE SINGAPORE 327827,327827,1,BENDEMEER,KLSZ01,KALLANG,KL,CENTRAL REGION,CR
243,104,WHAMPOA DR,19,1997,Y,N,N,N,N,N,KWN,112,0,0,0,65,47,0,0,0,0,0,0,0,1.320799591,103.8533278,WHAMPOA VIEW,104 WHAMPOA DRIVE WHAMPOA VIEW SINGAPORE 323104,323104,1,BALESTIER,NVSZ01,NOVENA,NV,CENTRAL REGION,CR
244,104,WOODLANDS ST 13,13,1984,Y,N,N,N,N,N,WL,111,0,0,0,111,0,0,0,0,0,0,0,0,1.436465871,103.7815769,NIL,104 WOODLANDS STREET 13 SINGAPORE 730104,730104,6,WOODLANDS WEST,WDSZ06,WOODLANDS,WD,NORTH REGION,NR
245,104,YISHUN RING RD,1,1984,N,N,Y,N,N,N,YS,0,0,0,0,0,0,0,0,0,0,0,0,0,1.431447752,103.8285377,CHONG PANG MARKET & FOOD CENTRE,104 YISHUN RING ROAD CHONG PANG MARKET & FOOD CENTRE SINGAPORE 760104,760104,9,YISHUN WEST,YSSZ09,YISHUN,YS,NORTH REGION,NR
246,104A,ANG MO KIO ST 11,12,1994,Y,N,N,N,N,N,AMK,60,0,0,0,0,0,60,0,0,0,0,0,0,1.371827009,103.8388037,KEBUN BARU HEIGHTS,104A ANG MO KIO STREET 11 KEBUN BARU HEIGHTS SINGAPORE 560104,560104,6,KEBUN BAHRU,AMSZ06,ANG MO KIO,AM,NORTH-EAST REGION,NER
247,104A,BIDADARI PK DR,17,2020,Y,N,N,N,N,N,TP,290,0,40,94,156,0,0,0,0,0,0,0,0,1.335321978,103.870934,ALKAFF COURTVIEW,104A BIDADARI PARK DRIVE ALKAFF COURTVIEW SINGAPORE 341104,341104,11,SENNETT,TPSZ11,TOA PAYOH,TP,CENTRAL REGION,CR
248,104A,CANBERRA ST,15,2017,Y,N,N,N,N,N,SB,140,0,0,42,98,0,0,0,0,0,0,0,0,1.450352258,103.8322624,EASTBROOK @ CANBERRA,104A CANBERRA STREET EASTBROOK @ CANBERRA SINGAPORE 751104,751104,1,SEMBAWANG EAST,SBSZ01,SEMBAWANG,SB,NORTH REGION,NR
249,104A,DEPOT RD,25,1998,Y,N,N,N,N,N,BM,96,0,0,0,48,48,0,0,0,0,0,0,0,1.280455613,103.8123177,DEPOT HEIGHTS,104A DEPOT ROAD DEPOT HEIGHTS SINGAPORE 101104,101104,12,DEPOT ROAD,BMSZ12,BUKIT MERAH,BM,CENTRAL REGION,CR
250,104A,EDGEFIELD PLAINS,17,2001,Y,N,N,N,N,N,PG,92,0,0,0,32,60,0,0,0,0,0,0,0,1.396805705,103.9050542,NIL,104A EDGEFIELD PLAINS SINGAPORE 821104,821104,4,PUNGGOL FIELD,PGSZ04,PUNGGOL,PG,NORTH-EAST REGION,NER
251,104A,HENDERSON CRES,5,1997,N,N,N,N,Y,N,BM,0,0,0,0,0,0,0,0,0,0,0,0,0,1.28903386,103.8214872,MULTI STOREY CAR PARK,104A HENDERSON CRESCENT MULTI STOREY CAR PARK SINGAPORE 151104,151104,8,HENDERSON HILL,BMSZ08,BUKIT MERAH,BM,CENTRAL REGION,CR
252,104B,ANG MO KIO ST 11,12,1994,Y,N,N,N,N,N,AMK,88,0,0,0,0,88,0,0,0,0,0,0,0,1.371511514,103.8384588,KEBUN BARU HEIGHTS,104B ANG MO KIO STREET 11 KEBUN BARU HEIGHTS SINGAPORE 561104,561104,6,KEBUN BAHRU,AMSZ06,ANG MO KIO,AM,NORTH-EAST REGION,NER
253,104B,CANBERRA ST,15,2017,Y,N,N,N,N,N,SB,168,0,70,28,70,0,0,0,0,0,0,0,0,1.450074217,103.831377,EASTBROOK @ CANBERRA,104B CANBERRA STREET EASTBROOK @ CANBERRA SINGAPORE 752104,752104,1,SEMBAWANG EAST,SBSZ01,SEMBAWANG,SB,NORTH REGION,NR
254,104B,DEPOT RD,20,1998,Y,N,N,N,N,N,BM,76,0,0,0,38,38,0,0,0,0,0,0,0,1.28049144,103.8121008,DEPOT HEIGHTS,104B DEPOT ROAD DEPOT HEIGHTS SINGAPORE 102104,102104,12,DEPOT ROAD,BMSZ12,BUKIT MERAH,BM,CENTRAL REGION,CR
255,104B,EDGEFIELD PLAINS,17,2001,Y,N,N,N,N,N,PG,92,0,0,0,32,60,0,0,0,0,0,0,0,1.396608862,103.9053038,NIL,104B EDGEFIELD PLAINS SINGAPORE 822104,822104,4,PUNGGOL FIELD,PGSZ04,PUNGGOL,PG,NORTH-EAST REGION,NER
256,104C,ANG MO KIO ST 11,5,1994,N,N,N,N,Y,N,AMK,0,0,0,0,0,0,0,0,0,0,0,0,0,1.371933159,103.8383303,KEBUN BARU HEIGHTS,104C ANG MO KIO STREET 11 KEBUN BARU HEIGHTS SINGAPORE 562104,562104,6,KEBUN BAHRU,AMSZ06,ANG MO KIO,AM,NORTH-EAST REGION,NER
257,104C,CANBERRA ST,15,2017,Y,N,N,N,N,N,SB,137,0,0,42,95,0,0,0,0,0,0,0,0,1.449709995,103.831776,EASTBROOK @ CANBERRA,104C CANBERRA STREET EASTBROOK @ CANBERRA SINGAPORE 753104,753104,1,SEMBAWANG EAST,SBSZ01,SEMBAWANG,SB,NORTH REGION,NR
258,104C,DEPOT RD,7,1997,N,Y,N,Y,Y,N,BM,0,0,0,0,0,0,0,0,0,0,0,0,0,1.280546798,103.8115715,DEPOT HEIGHTS,104C DEPOT ROAD DEPOT HEIGHTS SINGAPORE 103104,103104,12,DEPOT ROAD,BMSZ12,BUKIT MERAH,BM,CENTRAL REGION,CR
259,104D,CANBERRA ST,15,2017,Y,N,N,N,N,N,SB,167,0,70,27,70,0,0,0,0,0,0,0,0,1.449856324,103.832367,EASTBROOK @ CANBERRA,104D CANBERRA STREET EASTBROOK @ CANBERRA SINGAPORE 754104,754104,1,SEMBAWANG EAST,SBSZ01,SEMBAWANG,SB,NORTH REGION,NR
260,105,ALJUNIED CRES,12,1978,Y,N,N,N,N,N,GL,88,0,0,0,12,76,0,0,0,0,0,0,0,1.319468621,103.8827515,NIL,105 ALJUNIED CRESCENT SINGAPORE 380105,380105,4,ALJUNIED,GLSZ04,GEYLANG,GL,CENTRAL REGION,CR
261,105,ANG MO KIO AVE 4,10,1977,Y,N,N,N,N,N,AMK,90,0,0,0,90,0,0,0,0,0,0,0,0,1.372313283,103.8376011,KEBUN BARU HEIGHTS,105 ANG MO KIO AVENUE 4 KEBUN BARU HEIGHTS SINGAPORE 560105,560105,6,KEBUN BAHRU,AMSZ06,ANG MO KIO,AM,NORTH-EAST REGION,NER
262,105,BEDOK RESERVOIR RD,12,1985,Y,N,N,N,N,N,BD,110,0,0,66,44,0,0,0,0,0,0,0,0,1.329144379,103.9091128,EUNOS VISTA,105 BEDOK RESERVOIR ROAD EUNOS VISTA SINGAPORE 470105,470105,1,KAKI BUKIT,BDSZ01,BEDOK,BD,EAST REGION,ER
263,105,BEDOK NTH AVE 4,14,1976,Y,Y,N,N,N,N,BD,155,0,0,128,26,0,1,0,0,0,0,0,0,1.333722809,103.9365177,PEARL GARDEN,105 BEDOK NORTH AVENUE 4 PEARL GARDEN SINGAPORE 460105,460105,4,BEDOK NORTH,BDSZ04,BEDOK,BD,EAST REGION,ER
264,105,BISHAN ST 12,9,1985,Y,N,N,N,N,N,BH,116,0,0,64,50,0,0,0,0,0,0,2,0,1.345894936,103.8473653,BISHAN VIEW,105 BISHAN STREET 12 BISHAN VIEW SINGAPORE 570105,570105,3,BISHAN EAST,BSSZ03,BISHAN,BS,CENTRAL REGION,CR
265,105,BIDADARI PK DR,1,2019,N,N,N,N,N,Y,TP,0,0,0,0,0,0,0,0,0,0,0,0,0,1.333784436,103.8704083,ALKAFF VISTA,105 BIDADARI PARK DRIVE ALKAFF VISTA SINGAPORE 340105,340105,11,SENNETT,TPSZ11,TOA PAYOH,TP,CENTRAL REGION,CR
266,105,BT BATOK CTRL,10,1984,Y,Y,N,N,N,N,BB,81,0,0,0,81,0,0,0,0,0,0,0,0,1.348572654,103.7471562,NIL,105 BUKIT BATOK CENTRAL SINGAPORE 650105,650105,7,BUKIT BATOK CENTRAL,BKSZ07,BUKIT BATOK,BK,WEST REGION,WR
267,105,BT PURMEI RD,13,1982,Y,N,N,N,N,N,BM,144,0,0,96,48,0,0,0,0,0,0,0,0,1.272483013,103.824703,BUKIT PURMEI VILLE,105 BUKIT PURMEI ROAD BUKIT PURMEI VILLE SINGAPORE 090105,90105,15,TELOK BLANGAH RISE,BMSZ15,BUKIT MERAH,BM,CENTRAL REGION,CR
268,105,CANBERRA ST,3,2017,N,Y,N,Y,N,N,SB,0,0,0,0,0,0,0,0,0,0,0,0,0,1.448855647,103.8324092,EASTBROOK @ CANBERRA,105 CANBERRA STREET EASTBROOK @ CANBERRA SINGAPORE 750105,750105,1,SEMBAWANG EAST,SBSZ01,SEMBAWANG,SB,NORTH REGION,NR
269,105,CLEMENTI ST 12,4,1984,Y,Y,N,N,N,N,CL,42,0,0,41,0,0,0,0,0,0,0,1,0,1.32271179,103.7698881,MOUNT PLEASANT ANIMAL MEDICAL CENTRE,105 CLEMENTI STREET 12 MOUNT PLEASANT ANIMAL MEDICAL CENTRE SINGAPORE 120105,120105,2,SUNSET WAY,CLSZ02,CLEMENTI,CL,WEST REGION,WR
270,105,DEPOT RD,2,2016,N,N,N,N,Y,N,BM,0,0,0,0,0,0,0,0,0,0,0,0,0,1.28089298,103.8123553,DEPOT HEIGHTS,105 DEPOT ROAD DEPOT HEIGHTS SINGAPORE 100105,100105,12,DEPOT ROAD,BMSZ12,BUKIT MERAH,BM,CENTRAL REGION,CR
271,105,EDGEFIELD PLAINS,4,2001,N,N,N,N,Y,N,PG,0,0,0,0,0,0,0,0,0,0,0,0,0,1.397229386,103.9055909,MULTI STOREY CAR PARK,105 EDGEFIELD PLAINS MULTI STOREY CAR PARK SINGAPORE 820105,820105,4,PUNGGOL FIELD,PGSZ04,PUNGGOL,PG,NORTH-EAST REGION,NER
272,105,GANGSA RD,4,1986,Y,N,N,N,N,N,BP,40,0,0,24,16,0,0,0,0,0,0,0,0,1.378312421,103.7677633,NIL,105 GANGSA ROAD SINGAPORE 670105,670105,5,JELEBU,BPSZ05,BUKIT PANJANG,BP,WEST REGION,WR
273,105,HENDERSON CRES,24,1974,Y,N,N,Y,N,N,BM,270,0,0,264,0,6,0,0,0,0,0,0,0,1.290214202,103.8223568,HENDERSONVILLE,105 HENDERSON CRESCENT HENDERSONVILLE SINGAPORE 150105,150105,8,HENDERSON HILL,BMSZ08,BUKIT MERAH,BM,CENTRAL REGION,CR
274,105,HOUGANG AVE 1,4,2005,N,N,Y,N,Y,N,HG,0,0,0,0,0,0,0,0,0,0,0,0,0,1.354082739,103.8901304,HOUGANG 105 HAINANESE VILLAGE CENTRE,105 HOUGANG AVENUE 1 HOUGANG 105 HAINANESE VILLAGE CENTRE SINGAPORE 530105,530105,7,LORONG AH SOO,HGSZ07,HOUGANG,HG,NORTH-EAST REGION,NER
275,105,JLN BT MERAH,12,1967,Y,Y,N,Y,N,N,BM,324,0,0,0,0,0,0,0,0,306,18,0,0,1.280632398,103.8249355,TIONG BAHRU ORCHID,105 JALAN BUKIT MERAH TIONG BAHRU ORCHID SINGAPORE 160105,160105,11,KAMPONG TIONG BAHRU,BMSZ11,BUKIT MERAH,BM,CENTRAL REGION,CR
276,105,JLN RAJAH,9,1983,Y,N,N,Y,N,N,KWN,72,0,0,0,0,0,72,0,0,0,0,0,0,1.3285791,103.8538725,PCF SPARKLETOTS PRESCHOOL @ WHAMPOA 105 (CC),105 JALAN RAJAH PCF SPARKLETOTS PRESCHOOL @ WHAMPOA 105 (CC) SINGAPORE 320105,320105,1,BALESTIER,NVSZ01,NOVENA,NV,CENTRAL REGION,CR
277,105,JURONG EAST ST 13,12,1982,Y,N,N,N,N,N,JE,98,0,0,0,98,0,0,0,0,0,0,0,0,1.337387468,103.7385276,JURONG EAST VILLE,105 JURONG EAST STREET 13 JURONG EAST VILLE SINGAPORE 600105,600105,2,YUHUA EAST,JESZ02,JURONG EAST,JE,WEST REGION,WR
278,105,LENGKONG TIGA,4,1988,Y,N,N,N,N,N,BD,8,0,0,0,0,0,8,0,0,0,0,0,0,1.325648315,103.9101122,KEMBANGAN GARDENS,105 LENGKONG TIGA KEMBANGAN GARDENS SINGAPORE 410105,410105,3,KEMBANGAN,BDSZ03,BEDOK,BD,EAST REGION,ER
279,105,LOR 1 TOA PAYOH,10,1967,Y,N,N,N,N,N,TP,160,0,0,0,0,0,0,0,0,0,160,0,0,1.340422641,103.8491094,TOA PAYOH BLOOM,105 LORONG 1 TOA PAYOH TOA PAYOH BLOOM SINGAPORE 310105,310105,3,BRADDELL,TPSZ03,TOA PAYOH,TP,CENTRAL REGION,CR
280,105,PASIR RIS ST 12,11,1988,Y,N,N,Y,N,N,PRC,120,0,0,0,68,52,0,0,0,0,0,0,0,1.368478953,103.9571115,PASIR RIS FIRE POST,105 PASIR RIS STREET 12 PASIR RIS FIRE POST SINGAPORE 510105,510105,5,PASIR RIS DRIVE,PRSZ05,PASIR RIS,PR,EAST REGION,ER
281,105,POTONG PASIR AVE 1,16,1984,Y,N,N,Y,N,N,TP,178,0,0,152,26,0,0,0,0,0,0,0,0,1.334414606,103.8686943,ASCENSION KINDERCARE,105 POTONG PASIR AVENUE 1 ASCENSION KINDERCARE SINGAPORE 350105,350105,9,POTONG PASIR,TPSZ09,TOA PAYOH,TP,CENTRAL REGION,CR
282,105,RIVERVALE WALK,17,1997,Y,N,N,N,N,N,SK,78,0,0,0,60,18,0,0,0,0,0,0,0,1.382156131,103.9007119,RIVERVALE COURT,105 RIVERVALE WALK RIVERVALE COURT SINGAPORE 540105,540105,2,RIVERVALE,SESZ02,SENGKANG,SE,NORTH-EAST REGION,NER
283,105,SERANGOON NTH AVE 1,13,1983,Y,N,N,N,N,N,SGN,120,0,0,120,0,0,0,0,0,0,0,0,0,1.370247459,103.870226,HWI YOH COURT,105 SERANGOON NORTH AVENUE 1 HWI YOH COURT SINGAPORE 550105,550105,4,SERANGOON GARDEN,SGSZ04,SERANGOON,SG,NORTH-EAST REGION,NER
284,105,SIMEI ST 1,4,1987,Y,N,N,N,N,N,TAP,32,0,0,0,0,0,32,0,0,0,0,0,0,1.340924594,103.9507425,NIL,105 SIMEI STREET 1 SINGAPORE 520105,520105,4,SIMEI,TMSZ04,TAMPINES,TM,EAST REGION,ER
285,105,SPOTTISWOODE PK RD,25,1976,Y,N,N,N,N,N,BM,94,0,0,0,0,92,2,0,0,0,0,0,0,1.273800756,103.8344822,SPOTTISWOODE PARK ESTATE,105 SPOTTISWOODE PARK ROAD SPOTTISWOODE PARK ESTATE SINGAPORE 080105,80105,16,EVERTON PARK,BMSZ16,BUKIT MERAH,BM,CENTRAL REGION,CR
286,105,TAMPINES ST 11,11,1982,Y,N,N,N,N,N,TAP,119,0,0,78,40,0,1,0,0,0,0,0,0,1.348093125,103.9471776,NIL,105 TAMPINES STREET 11 SINGAPORE 521105,521105,2,TAMPINES EAST,TMSZ02,TAMPINES,TM,EAST REGION,ER
287,105,TECK WHYE LANE,12,1987,Y,N,N,N,N,N,CCK,132,0,0,65,66,0,0,0,0,0,0,1,0,1.37765002,103.7529943,NIL,105 TECK WHYE LANE SINGAPORE 680105,680105,1,TECK WHYE,CKSZ01,CHOA CHU KANG,CK,WEST REGION,WR
288,105,TOWNER RD,25,1984,Y,N,N,Y,N,N,KWN,275,0,0,120,155,0,0,0,0,0,0,0,0,1.320813043,103.8613467,NIL,105 TOWNER ROAD SINGAPORE 321105,321105,1,BENDEMEER,KLSZ01,KALLANG,KL,CENTRAL REGION,CR
289,105,WOODLANDS ST 13,13,1984,Y,Y,N,N,N,N,WL,111,0,0,0,111,0,0,0,0,0,0,0,0,1.436844762,103.7815791,NIL,105 WOODLANDS STREET 13 SINGAPORE 730105,730105,6,WOODLANDS WEST,WDSZ06,WOODLANDS,WD,NORTH REGION,NR
290,105,YISHUN RING RD,1,1984,N,N,Y,N,N,N,YS,0,0,0,0,0,0,0,0,0,0,0,0,0,1.431718367,103.8281143,CHONG PANG MARKET & FOOD CENTRE,105 YISHUN RING ROAD CHONG PANG MARKET & FOOD CENTRE SINGAPORE 760105,760105,9,YISHUN WEST,YSSZ09,YISHUN,YS,NORTH REGION,NR
291,105A,BIDADARI PK DR,17,2019,Y,Y,N,N,N,N,TP,64,0,0,0,28,36,0,0,0,0,0,0,0,1.334006992,103.8704306,ALKAFF VISTA,105A BIDADARI PARK DRIVE ALKAFF VISTA SINGAPORE 341105,341105,11,SENNETT,TPSZ11,TOA PAYOH,TP,CENTRAL REGION,CR
292,105A,DEPOT RD,21,2016,Y,N,N,N,N,N,BM,160,0,0,80,80,0,0,0,0,0,0,0,0,1.281071165,103.8114057,DEPOT HEIGHTS,105A DEPOT ROAD DEPOT HEIGHTS SINGAPORE 101105,101105,12,DEPOT ROAD,BMSZ12,BUKIT MERAH,BM,CENTRAL REGION,CR
293,105A,EDGEFIELD PLAINS,17,2001,Y,N,N,N,N,N,PG,85,0,0,0,28,57,0,0,0,0,0,0,0,1.396941332,103.9057295,NIL,105A EDGEFIELD PLAINS SINGAPORE 821105,821105,4,PUNGGOL FIELD,PGSZ04,PUNGGOL,PG,NORTH-EAST REGION,NER
294,105A,JLN BT MERAH,1,2003,N,N,N,N,N,Y,BM,0,0,0,0,0,0,0,0,0,0,0,0,0,1.280661187,103.8242584,TIONG BAHRU ORCHID,105A JALAN BUKIT MERAH TIONG BAHRU ORCHID SINGAPORE 161105,161105,11,KAMPONG TIONG BAHRU,BMSZ11,BUKIT MERAH,BM,CENTRAL REGION,CR
295,105B,BIDADARI PK DR,17,2019,Y,N,N,N,N,N,TP,92,0,0,0,54,38,0,0,0,0,0,0,0,1.333474039,103.8704904,ALKAFF VISTA,105B BIDADARI PARK DRIVE ALKAFF VISTA SINGAPORE 342105,342105,11,SENNETT,TPSZ11,TOA PAYOH,TP,CENTRAL REGION,CR
296,105B,DEPOT RD,1,2017,N,N,N,N,N,Y,BM,0,0,0,0,0,0,0,0,0,0,0,0,0,1.281108068,103.811133,DEPOT HEIGHTS,105B DEPOT ROAD DEPOT HEIGHTS SINGAPORE 102105,102105,12,DEPOT ROAD,BMSZ12,BUKIT MERAH,BM,CENTRAL REGION,CR
297,105B,EDGEFIELD PLAINS,17,2001,Y,N,N,N,N,N,PG,85,0,0,0,28,57,0,0,0,0,0,0,0,1.397206464,103.9060023,NIL,105B EDGEFIELD PLAINS SINGAPORE 822105,822105,4,PUNGGOL FIELD,PGSZ04,PUNGGOL,PG,NORTH-EAST REGION,NER
298,105C,EDGEFIELD PLAINS,17,2001,Y,N,N,N,N,N,PG,85,0,0,0,28,57,0,0,0,0,0,0,0,1.397672035,103.9055988,NIL,105C EDGEFIELD PLAINS SINGAPORE 823105,823105,4,PUNGGOL FIELD,PGSZ04,PUNGGOL,PG,NORTH-EAST REGION,NER
299,105D,EDGEFIELD PLAINS,17,2001,Y,N,N,Y,N,N,PG,85,0,0,0,28,57,0,0,0,0,0,0,0,1.397175306,103.9052296,PCF SPARKLETOTS PRESCHOOL @ PUNGGOL NORTH BLK 105D (KN),105D EDGEFIELD PLAINS PCF SPARKLETOTS PRESCHOOL @ PUNGGOL NORTH BLK 105D (KN) SINGAPORE 824105,824105,4,PUNGGOL FIELD,PGSZ04,PUNGGOL,PG,NORTH-EAST REGION,NER
300,106,ALJUNIED CRES,12,1978,Y,Y,N,Y,N,N,GL,194,0,0,167,22,4,0,0,0,0,0,1,0,1.31905495,103.8829009,NIL,106 ALJUNIED CRESCENT SINGAPORE 380106,380106,4,ALJUNIED,GLSZ04,GEYLANG,GL,CENTRAL REGION,CR
301,106,ANG MO KIO AVE 4,11,1977,Y,N,N,Y,N,N,AMK,138,0,0,115,20,2,0,0,0,0,0,1,0,1.371933703,103.8374861,KEBUN BARU HEIGHTS,106 ANG MO KIO AVENUE 4 KEBUN BARU HEIGHTS SINGAPORE 560106,560106,6,KEBUN BAHRU,AMSZ06,ANG MO KIO,AM,NORTH-EAST REGION,NER
302,106,BEDOK NTH AVE 4,13,1977,Y,N,N,N,N,N,BD,168,0,34,0,0,0,0,0,0,0,134,0,0,1.33445895,103.9370871,PEARL GARDEN,106 BEDOK NORTH AVENUE 4 PEARL GARDEN SINGAPORE 460106,460106,4,BEDOK NORTH,BDSZ04,BEDOK,BD,EAST REGION,ER
303,106,BEDOK RESERVOIR RD,12,1985,Y,N,N,N,N,N,BD,110,0,0,0,110,0,0,0,0,0,0,0,0,1.329501522,103.9093817,EUNOS VISTA,106 BEDOK RESERVOIR ROAD EUNOS VISTA SINGAPORE 470106,470106,1,KAKI BUKIT,BDSZ01,BEDOK,BD,EAST REGION,ER
304,106,BISHAN ST 12,13,1985,Y,Y,N,N,N,N,BH,96,0,0,0,96,0,0,0,0,0,0,0,0,1.346100701,103.8478472,BISHAN VIEW,106 BISHAN STREET 12 BISHAN VIEW SINGAPORE 570106,570106,3,BISHAN EAST,BSSZ03,BISHAN,BS,CENTRAL REGION,CR
305,106,BIDADARI PK DR,3,2019,N,Y,N,N,Y,N,TP,0,0,0,0,0,0,0,0,0,0,0,0,0,1.333699478,103.8707961,ALKAFF VISTA,106 BIDADARI PARK DRIVE ALKAFF VISTA SINGAPORE 340106,340106,11,SENNETT,TPSZ11,TOA PAYOH,TP,CENTRAL REGION,CR
306,106,BT BATOK CTRL,8,1984,Y,N,N,Y,N,N,BB,100,0,0,0,100,0,0,0,0,0,0,0,0,1.348222309,103.7471885,NIL,106 BUKIT BATOK CENTRAL SINGAPORE 650106,650106,7,BUKIT BATOK CENTRAL,BKSZ07,BUKIT BATOK,BK,WEST REGION,WR
307,106,BT PURMEI RD,13,1983,Y,N,N,N,N,N,BM,123,0,0,51,72,0,0,0,0,0,0,0,0,1.27298937,103.8256268,BUKIT PURMEI VILLE,106 BUKIT PURMEI ROAD BUKIT PURMEI VILLE SINGAPORE 090106,90106,15,TELOK BLANGAH RISE,BMSZ15,BUKIT MERAH,BM,CENTRAL REGION,CR
308,106,C'WEALTH CRES,10,1964,Y,N,N,N,N,N,QT,99,0,0,0,0,0,0,0,0,0,99,0,0,1.308226033,103.7995913,NIL,106 COMMONWEALTH CRESCENT SINGAPORE 140106,140106,3,COMMONWEALTH,QTSZ03,QUEENSTOWN,QT,CENTRAL REGION,CR
309,106,CANBERRA ST,4,2016,N,N,N,N,Y,N,SB,0,0,0,0,0,0,0,0,0,0,0,0,0,1.449138432,103.8327734,EASTBROOK @ CANBERRA,106 CANBERRA STREET EASTBROOK @ CANBERRA SINGAPORE 750106,750106,1,SEMBAWANG EAST,SBSZ01,SEMBAWANG,SB,NORTH REGION,NR
310,106,CLEMENTI ST 12,4,1985,N,Y,N,N,N,N,CL,0,0,0,0,0,0,0,0,0,0,0,0,0,1.321914673,103.7698152,SUNSET WAY RESIDENCE,106 CLEMENTI STREET 12 SUNSET WAY RESIDENCE SINGAPORE 120106,120106,2,SUNSET WAY,CLSZ02,CLEMENTI,CL,WEST REGION,WR
311,106,GANGSA RD,10,1986,Y,N,N,N,N,N,BP,90,0,0,54,36,0,0,0,0,0,0,0,0,1.377902,103.7674123,NIL,106 GANGSA ROAD SINGAPORE 670106,670106,5,JELEBU,BPSZ05,BUKIT PANJANG,BP,WEST REGION,WR
312,106,HENDERSON CRES,14,1973,Y,Y,N,Y,N,N,BM,130,0,0,0,130,0,0,0,0,0,0,0,0,1.289426079,103.8222768,NIL,106 HENDERSON CRESCENT SINGAPORE 150106,150106,8,HENDERSON HILL,BMSZ08,BUKIT MERAH,BM,CENTRAL REGION,CR
313,106,HOUGANG AVE 1,4,1982,Y,Y,N,N,N,N,HG,51,0,0,41,9,0,0,0,0,0,0,1,0,1.353703135,103.8906808,OCBC HOUGANG AVE 1 - 7 ELEVEN,106 HOUGANG AVENUE 1 OCBC HOUGANG AVE 1 - 7 ELEVEN SINGAPORE 530106,530106,7,LORONG AH SOO,HGSZ07,HOUGANG,HG,NORTH-EAST REGION,NER
314,106,JLN DUSUN,9,1980,Y,N,N,Y,N,N,KWN,97,0,0,0,97,0,0,0,0,0,0,0,0,1.328557712,103.8447968,AH HOOD GARDENS,106 JALAN DUSUN AH HOOD GARDENS SINGAPORE 320106,320106,1,BALESTIER,NVSZ01,NOVENA,NV,CENTRAL REGION,CR
315,106,JLN BT MERAH,12,1967,Y,N,N,N,N,N,BM,330,0,0,0,0,0,0,0,0,312,18,0,0,1.280242587,103.8245236,TIONG BAHRU ORCHID,106 JALAN BUKIT MERAH TIONG BAHRU ORCHID SINGAPORE 160106,160106,11,KAMPONG TIONG BAHRU,BMSZ11,BUKIT MERAH,BM,CENTRAL REGION,CR
316,106,JLN RAJAH,10,1983,Y,N,N,N,N,N,KWN,68,0,0,0,0,0,68,0,0,0,0,0,0,1.328476558,103.8546989,RAJAH COURT,106 JALAN RAJAH RAJAH COURT SINGAPORE 321106,321106,1,BALESTIER,NVSZ01,NOVENA,NV,CENTRAL REGION,CR
317,106,JURONG EAST ST 13,25,1982,Y,Y,N,N,N,N,JE,96,0,0,0,0,96,0,0,0,0,0,0,0,1.337249651,103.7376747,JURONG EAST VILLE,106 JURONG EAST STREET 13 JURONG EAST VILLE SINGAPORE 600106,600106,2,YUHUA EAST,JESZ02,JURONG EAST,JE,WEST REGION,WR
318,106,LENGKONG TIGA,9,1988,Y,N,N,N,N,N,BD,43,0,0,0,0,0,43,0,0,0,0,0,0,1.325088459,103.9100088,KEMBANGAN GARDENS,106 LENGKONG TIGA KEMBANGAN GARDENS SINGAPORE 410106,410106,3,KEMBANGAN,BDSZ03,BEDOK,BD,EAST REGION,ER
319,106,LOR 1 TOA PAYOH,10,1967,Y,N,N,Y,N,N,TP,158,0,0,0,0,0,0,0,0,0,158,0,0,1.340421956,103.848185,TOA PAYOH BLOOM,106 LORONG 1 TOA PAYOH TOA PAYOH BLOOM SINGAPORE 310106,310106,3,BRADDELL,TPSZ03,TOA PAYOH,TP,CENTRAL REGION,CR
320,106,PASIR RIS ST 12,13,1988,Y,N,N,N,N,N,PRC,96,0,0,0,54,42,0,0,0,0,0,0,0,1.36801255,103.9576531,NIL,106 PASIR RIS STREET 12 SINGAPORE 510106,510106,5,PASIR RIS DRIVE,PRSZ05,PASIR RIS,PR,EAST REGION,ER
321,106,POTONG PASIR AVE 1,4,1983,Y,N,N,N,N,N,TP,38,0,0,36,0,0,2,0,0,0,0,0,0,1.334100336,103.8681713,NIL,106 POTONG PASIR AVENUE 1 SINGAPORE 350106,350106,9,POTONG PASIR,TPSZ09,TOA PAYOH,TP,CENTRAL REGION,CR
322,106,PUNGGOL FIELD,1,2002,N,N,N,N,N,Y,PG,0,0,0,0,0,0,0,0,0,0,0,0,0,1.396391853,103.9082918,NIL,106 PUNGGOL FIELD SINGAPORE 820106,820106,4,PUNGGOL FIELD,PGSZ04,PUNGGOL,PG,NORTH-EAST REGION,NER
323,106,RIVERVALE WALK,17,1998,Y,N,N,N,N,N,SK,78,0,0,0,60,18,0,0,0,0,0,0,0,1.382497292,103.9003213,RIVERVALE COURT,106 RIVERVALE WALK RIVERVALE COURT SINGAPORE 540106,540106,2,RIVERVALE,SESZ02,SENGKANG,SE,NORTH-EAST REGION,NER
324,106,SERANGOON NTH AVE 1,12,1983,Y,N,N,N,N,N,SGN,131,0,0,130,0,1,0,0,0,0,0,0,0,1.370244621,103.870823,HWI YOH COURT,106 SERANGOON NORTH AVENUE 1 HWI YOH COURT SINGAPORE 550106,550106,4,SERANGOON GARDEN,SGSZ04,SERANGOON,SG,NORTH-EAST REGION,NER
325,106,SIMEI ST 1,11,1987,Y,N,N,N,N,N,TAP,100,0,0,0,64,36,0,0,0,0,0,0,0,1.341885217,103.9508335,NIL,106 SIMEI STREET 1 SINGAPORE 520106,520106,4,SIMEI,TMSZ04,TAMPINES,TM,EAST REGION,ER
326,106,SPOTTISWOODE PK RD,25,1976,Y,N,N,N,N,N,BM,94,0,0,0,0,92,2,0,0,0,0,0,0,1.273566738,103.8340582,SPOTTISWOODE PARK ESTATE,106 SPOTTISWOODE PARK ROAD SPOTTISWOODE PARK ESTATE SINGAPORE 080106,80106,16,EVERTON PARK,BMSZ16,BUKIT MERAH,BM,CENTRAL REGION,CR
327,106,TAMPINES ST 11,11,1983,Y,N,N,Y,N,N,TAP,80,0,0,0,12,68,0,0,0,0,0,0,0,1.347539186,103.9476754,PCF SPARKLETOTS PRESCHOOL @ TAMPINES-CHANGKAT BLK 106 (KN),106 TAMPINES STREET 11 PCF SPARKLETOTS PRESCHOOL @ TAMPINES-CHANGKAT BLK 106 (KN) SINGAPORE 521106,521106,2,TAMPINES EAST,TMSZ02,TAMPINES,TM,EAST REGION,ER
328,106,TECK WHYE LANE,12,1987,Y,N,N,N,N,N,CCK,110,0,0,66,44,0,0,0,0,0,0,0,0,1.377957988,103.7529316,NIL,106 TECK WHYE LANE SINGAPORE 680106,680106,1,TECK WHYE,CKSZ01,CHOA CHU KANG,CK,WEST REGION,WR
329,106,TOWNER RD,11,1983,Y,N,N,Y,N,N,KWN,80,0,0,0,40,40,0,0,0,0,0,0,0,1.321020012,103.8609978,PCF SPARKLETOTS PRESCHOOL @ WHAMPOA BLK 106 (KN),106 TOWNER ROAD PCF SPARKLETOTS PRESCHOOL @ WHAMPOA BLK 106 (KN) SINGAPORE 322106,322106,1,BENDEMEER,KLSZ01,KALLANG,KL,CENTRAL REGION,CR
330,106,WOODLANDS ST 13,4,1984,Y,N,N,N,N,N,WL,16,0,0,8,8,0,0,0,0,0,0,0,0,1.436769434,103.7822242,NIL,106 WOODLANDS STREET 13 SINGAPORE 730106,730106,6,WOODLANDS WEST,WDSZ06,WOODLANDS,WD,NORTH REGION,NR
331,106,YISHUN RING RD,4,1984,Y,Y,N,N,N,N,YS,60,0,0,54,4,0,0,0,0,0,0,2,0,1.431478614,103.827452,CHONG PANG GARDEN,106 YISHUN RING ROAD CHONG PANG GARDEN SINGAPORE 760106,760106,9,YISHUN WEST,YSSZ09,YISHUN,YS,NORTH REGION,NR
332,106A,BIDADARI PK DR,17,2019,Y,Y,N,Y,N,N,TP,107,0,0,0,62,45,0,0,0,0,0,0,0,1.334139,103.8712597,ALKAFF VISTA,106A BIDADARI PARK DRIVE ALKAFF VISTA SINGAPORE 341106,341106,11,SENNETT,TPSZ11,TOA PAYOH,TP,CENTRAL REGION,CR
333,106A,CANBERRA ST,15,2016,Y,N,N,N,N,N,SB,252,0,0,0,0,0,0,0,0,140,112,0,0,1.448503352,103.8331004,EASTBROOK @ CANBERRA,106A CANBERRA STREET EASTBROOK @ CANBERRA SINGAPORE 751106,751106,1,SEMBAWANG EAST,SBSZ01,SEMBAWANG,SB,NORTH REGION,NR
334,106A,DEPOT RD,25,1998,Y,N,N,N,N,N,BM,96,0,0,0,48,48,0,0,0,0,0,0,0,1.28061365,103.8109679,DEPOT HEIGHTS,106A DEPOT ROAD DEPOT HEIGHTS SINGAPORE 101106,101106,12,DEPOT ROAD,BMSZ12,BUKIT MERAH,BM,CENTRAL REGION,CR
335,106A,HENDERSON CRES,2,1972,N,Y,N,N,N,N,BM,0,0,0,0,0,0,0,0,0,0,0,0,0,1.288993356,103.8223452,ASCENSIA ACADEMY,106A HENDERSON CRESCENT ASCENSIA ACADEMY SINGAPORE 151106,151106,8,HENDERSON HILL,BMSZ08,BUKIT MERAH,BM,CENTRAL REGION,CR
336,106A,LOR 1 TOA PAYOH,1,2005,N,N,N,N,N,Y,TP,0,0,0,0,0,0,0,0,0,0,0,0,0,1.340578954,103.8479348,TOA PAYOH BLOOM,106A LORONG 1 TOA PAYOH TOA PAYOH BLOOM SINGAPORE 311106,311106,3,BRADDELL,TPSZ03,TOA PAYOH,TP,CENTRAL REGION,CR
337,106A,PUNGGOL FIELD,17,2001,Y,Y,N,N,N,N,PG,131,0,0,0,30,101,0,0,0,0,0,0,0,1.396604861,103.9083441,NIL,106A PUNGGOL FIELD SINGAPORE 821106,821106,4,PUNGGOL FIELD,PGSZ04,PUNGGOL,PG,NORTH-EAST REGION,NER
338,106B,BIDADARI PK DR,17,2019,Y,N,N,Y,N,N,TP,87,0,0,0,55,32,0,0,0,0,0,0,0,1.333642111,103.8711648,ALKAFF VISTA,106B BIDADARI PARK DRIVE ALKAFF VISTA SINGAPORE 342106,342106,11,SENNETT,TPSZ11,TOA PAYOH,TP,CENTRAL REGION,CR
339,106B,CANBERRA ST,15,2016,Y,N,N,N,N,N,SB,252,0,0,0,0,0,0,0,0,140,112,0,0,1.448038852,103.8332289,EASTBROOK @ CANBERRA,106B CANBERRA STREET EASTBROOK @ CANBERRA SINGAPORE 752106,752106,1,SEMBAWANG EAST,SBSZ01,SEMBAWANG,SB,NORTH REGION,NR
340,106B,DEPOT RD,20,1998,Y,N,N,N,N,N,BM,76,0,0,0,38,38,0,0,0,0,0,0,0,1.280649504,103.8107509,DEPOT HEIGHTS,106B DEPOT ROAD DEPOT HEIGHTS SINGAPORE 102106,102106,12,DEPOT ROAD,BMSZ12,BUKIT MERAH,BM,CENTRAL REGION,CR
341,106B,PUNGGOL FIELD,17,2001,Y,N,N,N,N,N,PG,82,0,0,0,56,26,0,0,0,0,0,0,0,1.397094532,103.9079554,NIL,106B PUNGGOL FIELD SINGAPORE 822106,822106,4,PUNGGOL FIELD,PGSZ04,PUNGGOL,PG,NORTH-EAST REGION,NER
342,106C,PUNGGOL FIELD,17,2001,Y,N,N,N,N,N,PG,82,0,0,0,38,44,0,0,0,0,0,0,0,1.397366642,103.9075622,NIL,106C PUNGGOL FIELD SINGAPORE 823106,823106,4,PUNGGOL FIELD,PGSZ04,PUNGGOL,PG,NORTH-EAST REGION,NER
343,106D,PUNGGOL FIELD,17,2001,Y,N,N,N,N,N,PG,86,0,0,0,0,86,0,0,0,0,0,0,0,1.397626067,103.9073581,NIL,106D PUNGGOL FIELD SINGAPORE 824106,824106,4,PUNGGOL FIELD,PGSZ04,PUNGGOL,PG,NORTH-EAST REGION,NER
344,107,ALJUNIED CRES,12,1980,Y,N,N,Y,N,N,GL,88,0,0,0,88,0,0,0,0,0,0,0,0,1.318964653,103.8842872,NIL,107 ALJUNIED CRESCENT SINGAPORE 380107,380107,4,ALJUNIED,GLSZ04,GEYLANG,GL,CENTRAL REGION,CR
345,107,ANG MO KIO AVE 4,11,1977,Y,Y,N,N,N,N,AMK,131,0,0,111,18,1,1,0,0,0,0,0,0,1.371384001,103.8373814,KEBUN BARU HEIGHTS,107 ANG MO KIO AVENUE 4 KEBUN BARU HEIGHTS SINGAPORE 560107,560107,6,KEBUN BAHRU,AMSZ06,ANG MO KIO,AM,NORTH-EAST REGION,NER
346,107,BEDOK NTH RD,12,1976,Y,Y,N,N,N,N,BD,154,0,0,132,22,0,0,0,0,0,0,0,0,1.332317407,103.9363013,FENGSHAN ESTATE,107 BEDOK NORTH ROAD FENGSHAN ESTATE SINGAPORE 460107,460107,4,BEDOK NORTH,BDSZ04,BEDOK,BD,EAST REGION,ER
347,107,BEDOK RESERVOIR RD,13,1985,Y,N,N,N,N,N,BD,120,0,0,72,48,0,0,0,0,0,0,0,0,1.329870289,103.9092204,EUNOS VISTA,107 BEDOK RESERVOIR ROAD EUNOS VISTA SINGAPORE 470107,470107,1,KAKI BUKIT,BDSZ01,BEDOK,BD,EAST REGION,ER
348,107,BISHAN ST 12,13,1985,Y,N,N,N,N,N,BH,96,0,0,0,96,0,0,0,0,0,0,0,0,1.346417614,103.8479207,BISHAN VIEW,107 BISHAN STREET 12 BISHAN VIEW SINGAPORE 570107,570107,3,BISHAN EAST,BSSZ03,BISHAN,BS,CENTRAL REGION,CR
349,107,BT PURMEI RD,13,1982,Y,Y,N,N,N,N,BM,144,0,0,84,60,0,0,0,0,0,0,0,0,1.273101655,103.8245086,BUKIT PURMEI VILLE,107 BUKIT PURMEI ROAD BUKIT PURMEI VILLE SINGAPORE 090107,90107,15,TELOK BLANGAH RISE,BMSZ15,BUKIT MERAH,BM,CENTRAL REGION,CR
350,107,BT BATOK WEST AVE 6,10,1984,Y,N,N,Y,N,N,BB,81,0,0,0,81,0,0,0,0,0,0,0,0,1.347810885,103.7466088,NIL,107 BUKIT BATOK WEST AVENUE 6 SINGAPORE 650107,650107,7,BUKIT BATOK CENTRAL,BKSZ07,BUKIT BATOK,BK,WEST REGION,WR
351,107,C'WEALTH CRES,10,1964,Y,N,N,Y,N,N,QT,99,0,0,0,0,0,0,0,0,0,99,0,0,1.307862447,103.7993123,NIL,107 COMMONWEALTH CRESCENT SINGAPORE 140107,140107,3,COMMONWEALTH,QTSZ03,QUEENSTOWN,QT,CENTRAL REGION,CR
352,107,CANBERRA ST,1,2017,N,N,N,N,N,Y,SB,0,0,0,0,0,0,0,0,0,0,0,0,0,1.449676077,103.8328082,EASTBROOK @ CANBERRA,107 CANBERRA STREET EASTBROOK @ CANBERRA SINGAPORE 750107,750107,1,SEMBAWANG EAST,SBSZ01,SEMBAWANG,SB,NORTH REGION,NR
353,107,CLEMENTI ST 12,1,1984,N,Y,N,N,N,N,CL,0,0,0,0,0,0,0,0,0,0,0,0,0,1.322254751,103.7699607,SUNSET WAY RESIDENCE,107 CLEMENTI STREET 12 SUNSET WAY RESIDENCE SINGAPORE 120107,120107,2,SUNSET WAY,CLSZ02,CLEMENTI,CL,WEST REGION,WR
354,107,GANGSA RD,13,1986,Y,N,N,Y,N,N,BP,60,0,0,0,0,0,60,0,0,0,0,0,0,1.377984697,103.7667147,NIL,107 GANGSA ROAD SINGAPORE 670107,670107,5,JELEBU,BPSZ05,BUKIT PANJANG,BP,WEST REGION,WR
355,107,HOUGANG AVE 1,1,1982,N,Y,N,N,N,N,HG,0,0,0,0,0,0,0,0,0,0,0,0,0,1.353434191,103.8906697,NIL,107 HOUGANG AVENUE 1 SINGAPORE 530107,530107,7,LORONG AH SOO,HGSZ07,HOUGANG,HG,NORTH-EAST REGION,NER
356,107,JLN RAJAH,13,1983,Y,Y,N,N,N,N,KWN,96,0,0,0,48,48,0,0,0,0,0,0,0,1.327853327,103.8549937,RAJAH COURT,107 JALAN RAJAH RAJAH COURT SINGAPORE 320107,320107,1,BALESTIER,NVSZ01,NOVENA,NV,CENTRAL REGION,CR
357,107,JLN BT MERAH,12,1967,Y,Y,N,N,N,N,BM,222,0,0,218,4,0,0,0,0,0,0,0,0,1.279836902,103.8247578,TIONG BAHRU ORCHID,107 JALAN BUKIT MERAH TIONG BAHRU ORCHID SINGAPORE 160107,160107,11,KAMPONG TIONG BAHRU,BMSZ11,BUKIT MERAH,BM,CENTRAL REGION,CR
358,107,JURONG EAST ST 13,12,1981,Y,Y,N,Y,N,N,JE,60,0,0,0,0,25,35,0,0,0,0,0,0,1.337786345,103.7381319,CHAMPIONS LEARNING COVE,107 JURONG EAST STREET 13 CHAMPIONS LEARNING COVE SINGAPORE 600107,600107,2,YUHUA EAST,JESZ02,JURONG EAST,JE,WEST REGION,WR
359,107,LENGKONG TIGA,4,1988,Y,N,N,N,N,N,BD,8,0,0,0,0,0,8,0,0,0,0,0,0,1.324954599,103.9101751,KEMBANGAN GARDENS,107 LENGKONG TIGA KEMBANGAN GARDENS SINGAPORE 410107,410107,3,KEMBANGAN,BDSZ03,BEDOK,BD,EAST REGION,ER
360,107,LOR 1 TOA PAYOH,10,1968,Y,Y,N,N,N,N,TP,96,0,0,96,0,0,0,0,0,0,0,0,0,1.341233588,103.847294,TOA PAYOH NORTH,107 LORONG 1 TOA PAYOH TOA PAYOH NORTH SINGAPORE 310107,310107,1,TOA PAYOH WEST,TPSZ01,TOA PAYOH,TP,CENTRAL REGION,CR
361,107,PASIR RIS ST 12,13,1988,Y,N,N,N,N,N,PRC,96,0,0,0,54,42,0,0,0,0,0,0,0,1.367509667,103.9575189,NIL,107 PASIR RIS STREET 12 SINGAPORE 510107,510107,5,PASIR RIS DRIVE,PRSZ05,PASIR RIS,PR,EAST REGION,ER
362,107,POTONG PASIR AVE 1,14,1984,Y,Y,N,N,N,N,TP,104,0,0,65,39,0,0,0,0,0,0,0,0,1.334709369,103.8684132,NIL,107 POTONG PASIR AVENUE 1 SINGAPORE 350107,350107,9,POTONG PASIR,TPSZ09,TOA PAYOH,TP,CENTRAL REGION,CR
363,107,PUNGGOL FIELD,3,2001,N,N,N,N,Y,N,PG,0,0,0,0,0,0,0,0,0,0,0,0,0,1.396934565,103.9077067,NIL,107 PUNGGOL FIELD SINGAPORE 820107,820107,4,PUNGGOL FIELD,PGSZ04,PUNGGOL,PG,NORTH-EAST REGION,NER
364,107,RIVERVALE WALK,17,1998,Y,N,N,N,N,N,SK,78,0,0,0,60,18,0,0,0,0,0,0,0,1.383005013,103.9002725,RIVERVALE COURT,107 RIVERVALE WALK RIVERVALE COURT SINGAPORE 540107,540107,2,RIVERVALE,SESZ02,SENGKANG,SE,NORTH-EAST REGION,NER
365,107,SERANGOON NTH AVE 1,13,1984,Y,Y,N,N,N,N,SGN,112,0,0,111,0,1,0,0,0,0,0,0,0,1.369900397,103.8702249,DISTINCT STUDENT CARE AND ENRICHMENT CENTRE,107 SERANGOON NORTH AVENUE 1 DISTINCT STUDENT CARE AND ENRICHMENT CENTRE SINGAPORE 550107,550107,4,SERANGOON GARDEN,SGSZ04,SERANGOON,SG,NORTH-EAST REGION,NER
366,107,SIMEI ST 1,11,1987,Y,Y,N,Y,N,N,TAP,140,0,0,0,88,52,0,0,0,0,0,0,0,1.34216114,103.9504899,NIL,107 SIMEI STREET 1 SINGAPORE 520107,520107,4,SIMEI,TMSZ04,TAMPINES,TM,EAST REGION,ER
367,107,SPOTTISWOODE PK RD,25,1976,Y,N,N,N,N,N,BM,94,0,0,0,0,92,2,0,0,0,0,0,0,1.273594959,103.8349179,SPOTTISWOODE PARK ESTATE,107 SPOTTISWOODE PARK ROAD SPOTTISWOODE PARK ESTATE SINGAPORE 080107,80107,16,EVERTON PARK,BMSZ16,BUKIT MERAH,BM,CENTRAL REGION,CR
368,107,TAMPINES ST 11,10,1983,Y,Y,N,N,N,N,TAP,115,0,0,65,49,0,1,0,0,0,0,0,0,1.348329155,103.9484307,OCBC TAMPINES STREET 11 - FAIRPRICE,107 TAMPINES STREET 11 OCBC TAMPINES STREET 11 - FAIRPRICE SINGAPORE 521107,521107,2,TAMPINES EAST,TMSZ02,TAMPINES,TM,EAST REGION,ER
369,107,TECK WHYE LANE,13,1988,Y,N,N,N,N,N,CCK,54,0,0,0,0,0,54,0,0,0,0,0,0,1.378055381,103.7535882,NIL,107 TECK WHYE LANE SINGAPORE 680107,680107,1,TECK WHYE,CKSZ01,CHOA CHU KANG,CK,WEST REGION,WR
370,107,TOWNER RD,25,1982,Y,N,N,Y,N,N,KWN,295,0,0,140,155,0,0,0,0,0,0,0,0,1.319337336,103.860226,ASIAN WOMEN'S WELFARE ASSOCIATION (AWWA) FAMILY SERVICE CENTRE,107 TOWNER ROAD ASIAN WOMEN'S WELFARE ASSOCIATION (AWWA) FAMILY SERVICE CENTRE SINGAPORE 321107,321107,1,BENDEMEER,KLSZ01,KALLANG,KL,CENTRAL REGION,CR
371,107,WOODLANDS ST 13,4,1984,Y,N,N,N,N,N,WL,8,0,0,0,0,0,8,0,0,0,0,0,0,1.437298432,103.7822271,NIL,107 WOODLANDS STREET 13 SINGAPORE 730107,730107,6,WOODLANDS WEST,WDSZ06,WOODLANDS,WD,NORTH REGION,NR
372,107,YISHUN RING RD,11,1981,Y,N,N,Y,N,N,YS,337,0,0,240,94,1,2,0,0,0,0,0,0,1.432218076,103.8275202,PCF SPARKLETOTS PRESCHOOL @ CHONG PANG BLK 107 (KN),107 YISHUN RING ROAD PCF SPARKLETOTS PRESCHOOL @ CHONG PANG BLK 107 (KN) SINGAPORE 760107,760107,9,YISHUN WEST,YSSZ09,YISHUN,YS,NORTH REGION,NR
373,107A,BIDADARI PK DR,16,2021,Y,N,N,N,N,N,TP,145,0,0,78,52,15,0,0,0,0,0,0,0,1.334779768,103.8723991,ALKAFF OASIS,107A BIDADARI PARK DRIVE ALKAFF OASIS SINGAPORE 341107,341107,11,SENNETT,TPSZ11,TOA PAYOH,TP,CENTRAL REGION,CR
374,107A,CANBERRA ST,15,2017,Y,N,N,Y,N,N,SB,139,0,0,41,98,0,0,0,0,0,0,0,0,1.449904746,103.8329792,EASTBROOK @ CANBERRA,107A CANBERRA STREET EASTBROOK @ CANBERRA SINGAPORE 751107,751107,1,SEMBAWANG EAST,SBSZ01,SEMBAWANG,SB,NORTH REGION,NR
375,107A,CLEMENTI ST 12,1,1984,N,Y,N,N,N,N,CL,0,0,0,0,0,0,0,0,0,0,0,0,0,1.322125918,103.7700694,DBS CLEMENTI STREET 12,107A CLEMENTI STREET 12 DBS CLEMENTI STREET 12 SINGAPORE 121107,121107,2,SUNSET WAY,CLSZ02,CLEMENTI,CL,WEST REGION,WR
376,107A,C'WEALTH CRES,1,2003,N,N,N,N,N,Y,QT,0,0,0,0,0,0,0,0,0,0,0,0,0,1.307946918,103.7996441,NIL,107A COMMONWEALTH CRESCENT SINGAPORE 141107,141107,3,COMMONWEALTH,QTSZ03,QUEENSTOWN,QT,CENTRAL REGION,CR
377,107A,EDGEFIELD PLAINS,17,2001,Y,N,N,N,N,N,PG,86,0,0,0,0,86,0,0,0,0,0,0,0,1.397198794,103.9068258,NIL,107A EDGEFIELD PLAINS SINGAPORE 821107,821107,4,PUNGGOL FIELD,PGSZ04,PUNGGOL,PG,NORTH-EAST REGION,NER
378,107A,JLN BT MERAH,1,2003,N,N,N,N,N,Y,BM,0,0,0,0,0,0,0,0,0,0,0,0,0,1.279865976,103.8255259,TIONG BAHRU ORCHID,107A JALAN BUKIT MERAH TIONG BAHRU ORCHID SINGAPORE 161107,161107,11,KAMPONG TIONG BAHRU,BMSZ11,BUKIT MERAH,BM,CENTRAL REGION,CR
379,107A,RIVERVALE WALK,1,1999,N,N,N,N,N,Y,SK,0,0,0,0,0,0,0,0,0,0,0,0,0,1.383211335,103.9000837,RIVERVALE COURT,107A RIVERVALE WALK RIVERVALE COURT SINGAPORE 541107,541107,2,RIVERVALE,SESZ02,SENGKANG,SE,NORTH-EAST REGION,NER
380,107B,BIDADARI PK DR,16,2021,Y,N,N,N,N,N,TP,78,0,0,0,30,48,0,0,0,0,0,0,0,1.334371552,103.8721172,ALKAFF OASIS,107B BIDADARI PARK DRIVE ALKAFF OASIS SINGAPORE 342107,342107,11,SENNETT,TPSZ11,TOA PAYOH,TP,CENTRAL REGION,CR
381,107B,CANBERRA ST,15,2017,Y,N,N,N,N,N,SB,140,0,0,42,98,0,0,0,0,0,0,0,0,1.449165163,103.8334973,EASTBROOK @ CANBERRA,107B CANBERRA STREET EASTBROOK @ CANBERRA SINGAPORE 752107,752107,1,SEMBAWANG EAST,SBSZ01,SEMBAWANG,SB,NORTH REGION,NR
382,107B,EDGEFIELD PLAINS,17,2001,Y,N,N,N,N,N,PG,85,0,0,0,27,58,0,0,0,0,0,0,0,1.396837235,103.9072482,NIL,107B EDGEFIELD PLAINS SINGAPORE 822107,822107,4,PUNGGOL FIELD,PGSZ04,PUNGGOL,PG,NORTH-EAST REGION,NER
383,107C,CANBERRA ST,15,2017,Y,N,N,N,N,N,SB,139,0,0,41,98,0,0,0,0,0,0,0,0,1.448557823,103.8338648,EASTBROOK @ CANBERRA,107C CANBERRA STREET EASTBROOK @ CANBERRA SINGAPORE 753107,753107,1,SEMBAWANG EAST,SBSZ01,SEMBAWANG,SB,NORTH REGION,NR
384,107C,EDGEFIELD PLAINS,17,2001,Y,N,N,N,N,N,PG,85,0,0,0,27,58,0,0,0,0,0,0,0,1.396621521,103.9076007,NIL,107C EDGEFIELD PLAINS SINGAPORE 823107,823107,4,PUNGGOL FIELD,PGSZ04,PUNGGOL,PG,NORTH-EAST REGION,NER
385,107D,EDGEFIELD PLAINS,17,2001,Y,N,N,Y,N,N,PG,91,0,0,0,0,91,0,0,0,0,0,0,0,1.396239822,103.9080073,FAITH EDUCARE CENTRE @EDGEFIELD PTE. LTD.,107D EDGEFIELD PLAINS FAITH EDUCARE CENTRE @EDGEFIELD PTE. LTD. SINGAPORE 824107,824107,4,PUNGGOL FIELD,PGSZ04,PUNGGOL,PG,NORTH-EAST REGION,NER
386,108,ALJUNIED CRES,12,1980,Y,N,N,Y,N,N,GL,152,0,0,128,22,2,0,0,0,0,0,0,0,1.319012761,103.8851688,PCF SPARKLETOTS PRESCHOOL @ MACPHERSON BLK 108 (KN),108 ALJUNIED CRESCENT PCF SPARKLETOTS PRESCHOOL @ MACPHERSON BLK 108 (KN) SINGAPORE 380108,380108,4,ALJUNIED,GLSZ04,GEYLANG,GL,CENTRAL REGION,CR
387,108,ANG MO KIO AVE 4,12,1978,Y,Y,N,N,N,N,AMK,122,0,0,89,31,1,0,0,0,0,0,1,0,1.37094274,103.8379748,THE ANIMAL DOCTORS,108 ANG MO KIO AVENUE 4 THE ANIMAL DOCTORS SINGAPORE 560108,560108,6,KEBUN BAHRU,AMSZ06,ANG MO KIO,AM,NORTH-EAST REGION,NER
388,108,BEDOK RESERVOIR RD,12,1985,Y,Y,N,Y,N,N,BD,153,0,0,86,66,1,0,0,0,0,0,0,0,1.330231922,103.909387,EUNOS VISTA,108 BEDOK RESERVOIR ROAD EUNOS VISTA SINGAPORE 470108,470108,1,KAKI BUKIT,BDSZ01,BEDOK,BD,EAST REGION,ER
389,108,BEDOK NTH RD,12,1976,Y,N,N,Y,N,N,BD,154,0,0,132,22,0,0,0,0,0,0,0,0,1.332740082,103.9362235,PCF SPARKLETOTS PRESCHOOL @ FENGSHAN 108 (CC),108 BEDOK NORTH ROAD PCF SPARKLETOTS PRESCHOOL @ FENGSHAN 108 (CC) SINGAPORE 460108,460108,4,BEDOK NORTH,BDSZ04,BEDOK,BD,EAST REGION,ER
390,108,BISHAN ST 12,4,1985,Y,N,N,N,N,N,BH,32,0,0,16,16,0,0,0,0,0,0,0,0,1.346714989,103.8473984,BISHAN VIEW,108 BISHAN STREET 12 BISHAN VIEW SINGAPORE 570108,570108,3,BISHAN EAST,BSSZ03,BISHAN,BS,CENTRAL REGION,CR
391,108,BT PURMEI RD,12,1984,Y,N,N,Y,N,N,BM,176,0,0,55,121,0,0,0,0,0,0,0,0,1.273374137,103.8253281,PCF SPARKLETOTS PRESCHOOL @ RADIN MAS BLK 108 (KN),108 BUKIT PURMEI ROAD PCF SPARKLETOTS PRESCHOOL @ RADIN MAS BLK 108 (KN) SINGAPORE 090108,90108,15,TELOK BLANGAH RISE,BMSZ15,BUKIT MERAH,BM,CENTRAL REGION,CR
392,108,BT BATOK WEST AVE 6,8,1984,Y,N,N,Y,N,N,BB,88,0,0,0,88,0,0,0,0,0,0,0,0,1.347443852,103.7465021,CHINESE CHRISTIAN MISSION LIMITED,108 BUKIT BATOK WEST AVENUE 6 CHINESE CHRISTIAN MISSION LIMITED SINGAPORE 650108,650108,7,BUKIT BATOK CENTRAL,BKSZ07,BUKIT BATOK,BK,WEST REGION,WR
393,108,C'WEALTH CRES,10,1964,Y,N,N,N,N,N,QT,76,0,7,64,4,0,0,0,0,0,1,0,0,1.30754732,103.7990886,NIL,108 COMMONWEALTH CRESCENT SINGAPORE 140108,140108,3,COMMONWEALTH,QTSZ03,QUEENSTOWN,QT,CENTRAL REGION,CR
394,108,CANBERRA WALK,6,2017,N,N,N,N,Y,N,SB,0,0,0,0,0,0,0,0,0,0,0,0,0,1.447766114,103.832223,EASTLAWN @ CANBERRA,108 CANBERRA WALK EASTLAWN @ CANBERRA SINGAPORE 750108,750108,1,SEMBAWANG EAST,SBSZ01,SEMBAWANG,SB,NORTH REGION,NR
395,108,CLEMENTI ST 11,1,1984,N,Y,N,N,N,N,CL,0,0,0,0,0,0,0,0,0,0,0,0,0,1.322123929,103.7702659,SUNSET WAY RESIDENCE,108 CLEMENTI STREET 11 SUNSET WAY RESIDENCE SINGAPORE 120108,120108,2,SUNSET WAY,CLSZ02,CLEMENTI,CL,WEST REGION,WR
396,108,DEPOT RD,3,2004,N,Y,Y,N,N,N,BM,0,0,0,0,0,0,0,0,0,0,0,0,0,1.280966807,103.8102982,OCBC DEPOT HEIGHTS SHOPPING CENTRE,108 DEPOT ROAD OCBC DEPOT HEIGHTS SHOPPING CENTRE SINGAPORE 100108,100108,12,DEPOT ROAD,BMSZ12,BUKIT MERAH,BM,CENTRAL REGION,CR
397,108,GANGSA RD,10,1986,Y,N,N,Y,N,N,BP,90,0,0,54,36,0,0,0,0,0,0,0,0,1.377596852,103.7672272,NIL,108 GANGSA ROAD SINGAPORE 670108,670108,5,JELEBU,BPSZ05,BUKIT PANJANG,BP,WEST REGION,WR
398,108,HOUGANG AVE 1,4,1982,Y,Y,N,N,N,N,HG,70,0,0,66,4,0,0,0,0,0,0,0,0,1.352772196,103.8900986,UOB HOUGANG BRANCH,108 HOUGANG AVENUE 1 UOB HOUGANG BRANCH SINGAPORE 530108,530108,7,LORONG AH SOO,HGSZ07,HOUGANG,HG,NORTH-EAST REGION,NER
399,108,JLN BT MERAH,10,1983,Y,N,N,N,N,N,BM,169,0,0,94,74,0,1,0,0,0,0,0,0,1.279220088,103.8254414,NIL,108 JALAN BUKIT MERAH SINGAPORE 160108,160108,11,KAMPONG TIONG BAHRU,BMSZ11,BUKIT MERAH,BM,CENTRAL REGION,CR
400,108,JLN RAJAH,11,1983,Y,N,N,N,N,N,KWN,75,0,0,0,0,0,75,0,0,0,0,0,0,1.328389357,103.8557509,RAJAH COURT,108 JALAN RAJAH RAJAH COURT SINGAPORE 320108,320108,1,BALESTIER,NVSZ01,NOVENA,NV,CENTRAL REGION,CR
401,108,JURONG EAST ST 13,12,1982,Y,Y,N,Y,N,N,JE,98,0,0,0,98,0,0,0,0,0,0,0,0,1.33828124,103.7370147,PCF SPARKLETOTS PRESCHOOL @ YUHUA 108 (CC),108 JURONG EAST STREET 13 PCF SPARKLETOTS PRESCHOOL @ YUHUA 108 (CC) SINGAPORE 600108,600108,2,YUHUA EAST,JESZ02,JURONG EAST,JE,WEST REGION,WR
402,108,LENGKONG TIGA,9,1988,Y,N,N,N,N,N,BD,47,0,0,0,0,0,47,0,0,0,0,0,0,1.32456371,103.910131,KEMBANGAN GARDENS,108 LENGKONG TIGA KEMBANGAN GARDENS SINGAPORE 410108,410108,3,KEMBANGAN,BDSZ03,BEDOK,BD,EAST REGION,ER
403,108,LOR 1 TOA PAYOH,10,1969,Y,N,N,N,N,N,TP,118,0,0,115,0,2,0,0,0,0,0,1,0,1.341552529,103.8472951,TOA PAYOH NORTH,108 LORONG 1 TOA PAYOH TOA PAYOH NORTH SINGAPORE 310108,310108,1,TOA PAYOH WEST,TPSZ01,TOA PAYOH,TP,CENTRAL REGION,CR
404,108,MCNAIR RD,15,1986,Y,Y,N,N,N,N,KWN,140,0,0,8,104,28,0,0,0,0,0,0,0,1.321619038,103.8593827,MCNAIR SPRING,108 MCNAIR ROAD MCNAIR SPRING SINGAPORE 321108,321108,1,BENDEMEER,KLSZ01,KALLANG,KL,CENTRAL REGION,CR
405,108,PASIR RIS ST 12,13,1988,Y,N,N,N,N,N,PRC,48,0,0,0,0,0,48,0,0,0,0,0,0,1.367478779,103.9570177,NIL,108 PASIR RIS STREET 12 SINGAPORE 510108,510108,5,PASIR RIS DRIVE,PRSZ05,PASIR RIS,PR,EAST REGION,ER
406,108,POTONG PASIR AVE 1,14,1984,Y,Y,N,Y,N,N,TP,142,0,0,115,26,0,1,0,0,0,0,0,0,1.334720043,103.8679284,NIL,108 POTONG PASIR AVENUE 1 SINGAPORE 350108,350108,9,POTONG PASIR,TPSZ09,TOA PAYOH,TP,CENTRAL REGION,CR
407,108,PUNGGOL FIELD,1,2002,N,Y,N,N,N,N,PG,0,0,0,0,0,0,0,0,0,0,0,0,0,1.396498616,103.9088663,UOB PUNGGOL FIELD,108 PUNGGOL FIELD UOB PUNGGOL FIELD SINGAPORE 820108,820108,4,PUNGGOL FIELD,PGSZ04,PUNGGOL,PG,NORTH-EAST REGION,NER
408,108,RIVERVALE WALK,17,1998,Y,N,N,N,N,N,SK,78,0,0,0,60,18,0,0,0,0,0,0,0,1.382811686,103.8997829,RIVERVALE COURT,108 RIVERVALE WALK RIVERVALE COURT SINGAPORE 540108,540108,2,RIVERVALE,SESZ02,SENGKANG,SE,NORTH-EAST REGION,NER
409,108,SERANGOON NTH AVE 1,12,1983,Y,N,N,Y,N,N,SGN,128,0,0,124,0,4,0,0,0,0,0,0,0,1.369900585,103.8712795,SERANGOON NORTH NEIGHBOURHOOD POLICE POST,108 SERANGOON NORTH AVENUE 1 SERANGOON NORTH NEIGHBOURHOOD POLICE POST SINGAPORE 550108,550108,4,SERANGOON GARDEN,SGSZ04,SERANGOON,SG,NORTH-EAST REGION,NER
410,108,SIMEI ST 1,11,1987,Y,N,N,Y,N,N,TAP,100,0,0,0,64,36,0,0,0,0,0,0,0,1.343019541,103.9510074,NIL,108 SIMEI STREET 1 SINGAPORE 520108,520108,4,SIMEI,TMSZ04,TAMPINES,TM,EAST REGION,ER
411,108,SPOTTISWOODE PK RD,5,1976,N,Y,N,Y,Y,N,BM,0,0,0,0,0,0,0,0,0,0,0,0,0,1.273942277,103.8356593,NIL,108 SPOTTISWOODE PARK ROAD SINGAPORE 080108,80108,16,EVERTON PARK,BMSZ16,BUKIT MERAH,BM,CENTRAL REGION,CR
412,108,TAMPINES ST 11,11,1983,Y,N,N,N,N,N,TAP,120,0,0,80,40,0,0,0,0,0,0,0,0,1.347866464,103.9485616,NIL,108 TAMPINES STREET 11 SINGAPORE 521108,521108,2,TAMPINES EAST,TMSZ02,TAMPINES,TM,EAST REGION,ER
413,108,TECK WHYE LANE,13,1988,Y,N,N,N,N,N,CCK,72,0,0,0,0,0,72,0,0,0,0,0,0,1.378324137,103.7529508,NIL,108 TECK WHYE LANE SINGAPORE 680108,680108,1,TECK WHYE,CKSZ01,CHOA CHU KANG,CK,WEST REGION,WR
414,108,WOODLANDS ST 13,13,1984,Y,N,N,N,N,N,WL,111,0,0,0,111,0,0,0,0,0,0,0,0,1.437219087,103.7815768,NIL,108 WOODLANDS STREET 13 SINGAPORE 730108,730108,6,WOODLANDS WEST,WDSZ06,WOODLANDS,WD,NORTH REGION,NR
415,108,YISHUN RING RD,9,1981,Y,N,N,Y,N,N,YS,208,0,0,137,32,0,0,0,0,16,16,7,0,1.432323551,103.829072,NIL,108 YISHUN RING ROAD SINGAPORE 760108,760108,9,YISHUN WEST,YSSZ09,YISHUN,YS,NORTH REGION,NR
416,108A,BIDADARI PK DR,16,2021,Y,N,N,N,N,N,TP,156,0,0,96,60,0,0,0,0,0,0,0,0,1.334354873,103.8716868,ALKAFF OASIS,108A BIDADARI PARK DRIVE ALKAFF OASIS SINGAPORE 341108,341108,11,SENNETT,TPSZ11,TOA PAYOH,TP,CENTRAL REGION,CR
417,108A,CANBERRA WALK,14,2017,Y,N,N,N,N,N,SB,112,0,0,0,38,74,0,0,0,0,0,0,0,1.447760566,103.8312747,EASTLAWN @ CANBERRA,108A CANBERRA WALK EASTLAWN @ CANBERRA SINGAPORE 751108,751108,1,SEMBAWANG EAST,SBSZ01,SEMBAWANG,SB,NORTH REGION,NR
418,108A,CLEMENTI ST 11,1,1984,N,Y,N,N,N,N,CL,0,0,0,0,0,0,0,0,0,0,0,0,0,1.322258385,103.7701466,SUNSET WAY RESIDENCE,108A CLEMENTI STREET 11 SUNSET WAY RESIDENCE SINGAPORE 121108,121108,2,SUNSET WAY,CLSZ02,CLEMENTI,CL,WEST REGION,WR
419,108A,DEPOT RD,5,2004,N,N,N,Y,Y,N,BM,0,0,0,0,0,0,0,0,0,0,0,0,0,1.280864939,103.8101426,DEPOT HEIGHTS SHOPPING CENTRE,108A DEPOT ROAD DEPOT HEIGHTS SHOPPING CENTRE SINGAPORE 101108,101108,12,DEPOT ROAD,BMSZ12,BUKIT MERAH,BM,CENTRAL REGION,CR
420,108A,MCNAIR RD,5,2003,N,N,N,N,Y,N,KWN,0,0,0,0,0,0,0,0,0,0,0,0,0,1.320554197,103.8594077,TOWNER HEIGHTS,108A MCNAIR ROAD TOWNER HEIGHTS SINGAPORE 322108,322108,1,BENDEMEER,KLSZ01,KALLANG,KL,CENTRAL REGION,CR
421,108A,PASIR RIS ST 12,5,2001,N,N,N,N,Y,N,PRC,0,0,0,0,0,0,0,0,0,0,0,0,0,1.367972957,103.9570169,MULTI STOREY CAR PARK,108A PASIR RIS STREET 12 MULTI STOREY CAR PARK SINGAPORE 511108,511108,5,PASIR RIS DRIVE,PRSZ05,PASIR RIS,PR,EAST REGION,ER
422,108B,BIDADARI PK DR,17,2021,Y,N,N,N,N,N,TP,62,0,0,0,32,30,0,0,0,0,0,0,0,1.333672084,103.8720107,ALKAFF OASIS,108B BIDADARI PARK DRIVE ALKAFF OASIS SINGAPORE 342108,342108,11,SENNETT,TPSZ11,TOA PAYOH,TP,CENTRAL REGION,CR
423,108B,CANBERRA WALK,14,2017,Y,N,N,N,N,N,SB,117,0,0,0,65,52,0,0,0,0,0,0,0,1.448189517,103.8318569,EASTLAWN @ CANBERRA,108B CANBERRA WALK EASTLAWN @ CANBERRA SINGAPORE 752108,752108,1,SEMBAWANG EAST,SBSZ01,SEMBAWANG,SB,NORTH REGION,NR
424,108B,MCNAIR RD,30,2003,Y,N,N,N,N,N,KWN,174,0,0,0,87,87,0,0,0,0,0,0,0,1.319981244,103.8590051,TOWNER HEIGHTS,108B MCNAIR ROAD TOWNER HEIGHTS SINGAPORE 323108,323108,1,BENDEMEER,KLSZ01,KALLANG,KL,CENTRAL REGION,CR
425,108C,CANBERRA WALK,13,2017,Y,N,N,N,N,N,SB,108,0,0,0,60,48,0,0,0,0,0,0,0,1.447353301,103.8317962,EASTLAWN @ CANBERRA,108C CANBERRA WALK EASTLAWN @ CANBERRA SINGAPORE 753108,753108,1,SEMBAWANG EAST,SBSZ01,SEMBAWANG,SB,NORTH REGION,NR
426,108C,MCNAIR RD,30,2003,Y,N,N,N,N,N,KWN,174,0,0,0,116,58,0,0,0,0,0,0,0,1.319844175,103.8594625,TOWNER HEIGHTS,108C MCNAIR ROAD TOWNER HEIGHTS SINGAPORE 324108,324108,1,BENDEMEER,KLSZ01,KALLANG,KL,CENTRAL REGION,CR
427,108D,CANBERRA WALK,1,2018,N,N,N,N,N,Y,SB,0,0,0,0,0,0,0,0,0,0,0,0,0,1.447771937,103.8319071,EASTLAWN @ CANBERRA,108D CANBERRA WALK EASTLAWN @ CANBERRA SINGAPORE 754108,754108,1,SEMBAWANG EAST,SBSZ01,SEMBAWANG,SB,NORTH REGION,NR
428,109,ALJUNIED CRES,12,1980,Y,N,N,N,N,N,GL,195,0,59,130,3,0,0,0,0,0,2,1,0,1.319392918,103.8844399,NIL,109 ALJUNIED CRESCENT SINGAPORE 380109,380109,4,ALJUNIED,GLSZ04,GEYLANG,GL,CENTRAL REGION,CR
429,109,ANG MO KIO AVE 4,12,1978,Y,N,N,Y,N,N,AMK,154,0,0,120,33,0,0,0,0,0,0,1,0,1.370096538,103.8376878,PCF SPARKLETOTS PRESCHOOL @ KEBUN BARU 109 (CC),109 ANG MO KIO AVENUE 4 PCF SPARKLETOTS PRESCHOOL @ KEBUN BARU 109 (CC) SINGAPORE 560109,560109,6,KEBUN BAHRU,AMSZ06,ANG MO KIO,AM,NORTH-EAST REGION,NER
430,109,BEDOK NTH RD,12,1976,Y,Y,N,N,N,N,BD,149,0,0,122,22,3,2,0,0,0,0,0,0,1.33205316,103.9349351,FENGSHAN ESTATE,109 BEDOK NORTH ROAD FENGSHAN ESTATE SINGAPORE 460109,460109,4,BEDOK NORTH,BDSZ04,BEDOK,BD,EAST REGION,ER
431,109,BEDOK RESERVOIR RD,4,1985,Y,N,N,N,N,N,BD,32,0,0,24,8,0,0,0,0,0,0,0,0,1.329631366,103.9099022,EUNOS VISTA,109 BEDOK RESERVOIR ROAD EUNOS VISTA SINGAPORE 470109,470109,1,KAKI BUKIT,BDSZ01,BEDOK,BD,EAST REGION,ER
432,109,BIDADARI PK DR,5,2021,N,N,N,N,Y,N,TP,0,0,0,0,0,0,0,0,0,0,0,0,0,1.334233695,103.8725746,ALKAFF OASIS,109 BIDADARI PARK DRIVE ALKAFF OASIS SINGAPORE 340109,340109,11,SENNETT,TPSZ11,TOA PAYOH,TP,CENTRAL REGION,CR
433,109,BISHAN ST 12,13,1985,Y,N,N,N,N,N,BH,96,0,0,0,96,0,0,0,0,0,0,0,0,1.346750596,103.8479902,BISHAN VIEW,109 BISHAN STREET 12 BISHAN VIEW SINGAPORE 570109,570109,3,BISHAN EAST,BSSZ03,BISHAN,BS,CENTRAL REGION,CR
434,109,BT BATOK WEST AVE 6,11,1984,Y,Y,N,N,N,N,BB,115,0,0,74,0,0,0,0,0,20,20,1,0,1.347003767,103.7461704,NIL,109 BUKIT BATOK WEST AVENUE 6 SINGAPORE 650109,650109,7,BUKIT BATOK CENTRAL,BKSZ07,BUKIT BATOK,BK,WEST REGION,WR
435,109,BT PURMEI RD,12,1984,Y,Y,N,N,N,N,BM,162,0,0,99,61,0,2,0,0,0,0,0,0,1.273929399,103.8253108,BUKIT PURMEI VILLE,109 BUKIT PURMEI ROAD BUKIT PURMEI VILLE SINGAPORE 090109,90109,15,TELOK BLANGAH RISE,BMSZ15,BUKIT MERAH,BM,CENTRAL REGION,CR
436,109,C'WEALTH CRES,10,1964,Y,N,N,N,N,N,QT,79,0,10,68,1,0,0,0,0,0,0,0,0,1.307249431,103.7989383,NIL,109 COMMONWEALTH CRESCENT SINGAPORE 140109,140109,3,COMMONWEALTH,QTSZ03,QUEENSTOWN,QT,CENTRAL REGION,CR
437,109,CANBERRA WALK,6,2021,N,N,N,Y,Y,Y,SB,0,0,0,0,0,0,0,0,0,0,0,0,0,1.448617678,103.8297306,EASTGLEN @ CANBERRA,109 CANBERRA WALK EASTGLEN @ CANBERRA SINGAPORE 750109,750109,1,SEMBAWANG EAST,SBSZ01,SEMBAWANG,SB,NORTH REGION,NR
438,109,CLEMENTI ST 11,4,1984,Y,Y,N,N,N,N,CL,47,0,0,47,0,0,0,0,0,0,0,0,0,1.321891018,103.7705953,OCBC CLEMENTI ST 11 - 7 ELEVEN,109 CLEMENTI STREET 11 OCBC CLEMENTI ST 11 - 7 ELEVEN SINGAPORE 120109,120109,2,SUNSET WAY,CLSZ02,CLEMENTI,CL,WEST REGION,WR
439,109,GANGSA RD,4,1986,Y,Y,N,N,N,N,BP,26,0,0,19,7,0,0,0,0,0,0,0,0,1.377367365,103.7677488,NIL,109 GANGSA ROAD SINGAPORE 670109,670109,5,JELEBU,BPSZ05,BUKIT PANJANG,BP,WEST REGION,WR
440,109,HOUGANG AVE 1,13,1982,Y,Y,N,N,N,N,HG,123,0,0,103,19,0,1,0,0,0,0,0,0,1.355328589,103.8893763,NIL,109 HOUGANG AVENUE 1 SINGAPORE 530109,530109,7,LORONG AH SOO,HGSZ07,HOUGANG,HG,NORTH-EAST REGION,NER
441,109,JLN BT MERAH,13,1983,Y,N,N,Y,N,N,BM,118,0,0,0,118,0,0,0,0,0,0,0,0,1.279426714,103.8260869,NIL,109 JALAN BUKIT MERAH SINGAPORE 160109,160109,11,KAMPONG TIONG BAHRU,BMSZ11,BUKIT MERAH,BM,CENTRAL REGION,CR
